KGCode,Katastralgemeinde,EZ,PLZ,Straße,ON,Gst,GstFl,ErwArt,Widmung,Bauklasse,Gebäudehöhe,Bauweise,Zusatz,Schutzzone,Wohnzone,öZ,Bausperre,seitbis,zuordnung,Geschoße,parz,Erwerbsdatum,Anteile,Zähler,Nenner,BJ,TZ,Kaufpreis,mGfl,Baureifgest,percentWidmung,Baurecht,Bis,aufEZ,Stammeinlage,sonstwid,sonstwidprz,address,one_more_time,lon,lat,price_m2,price_log,train,cluster
01205,Hietzing,290,1130,hietzinger hauptstrasse,31,240/9,2062,Kaufvertrag,W,II,NA,o,NA,FALSCH,FALSCH,FALSCH,FALSCH,NA,"Ein-, Zweifamilienhaus",3,J,25.04.2007,NA,1,1,1900,1464/2007,6000000,NA,FALSCH,100,FALSCH,NA,NA,FALSCH,NA,NA,"hietzinger hauptstrasse, 31, vienna, austria",FALSE,16.295567900000002,48.1867759,2909.796314258002,11.506702452677223,1,1
01512,Unterdöbling,355,1190,fuerfanggasse,5,281/9,1822,Kaufvertrag,W,I,7.5,o,Schutzzone,FALSCH,FALSCH,FALSCH,FALSCH,NA,"Ein-, Zweifamilienhaus",2,J,10.12.2015,NA,1,1,1990,226/2016,5000000,NA,FALSCH,100,FALSCH,NA,NA,FALSCH,NA,NA,"fuerfanggasse, 5, vienna, austria",FALSE,16.3502998,48.2516235,2744.2371020856203,11.422189420409486,1,2
01512,Unterdöbling,33,1190,nusswaldgasse,7,48,2641,Kaufvertrag,W,II,NA,o gk,NA,FALSCH,FALSCH,FALSCH,FALSCH,NA,"Ein-, Zweifamilienhaus",2,J,07.11.2015,NA,1,1,1970,7045/2015,4200000,NA,FALSCH,100,FALSCH,NA,NA,FALSCH,NA,NA,"nusswaldgasse, 7, vienna, austria",FALSE,16.3508976,48.2441197,1590.3067020068156,10.635089311048478,1,2
01502,Grinzing,1471,1190,schreiberweg,31,595/1,1500,Kaufvertrag,W,I,7.5,ogk,NA,FALSCH,FALSCH,FALSCH,FALSCH,NA,"Ein-, Zweifamilienhaus",3,NA,24.09.2008,NA,1,1,2005,4919/08,3500000,NA,FALSCH,100,FALSCH,NA,NA,FALSCH,NA,NA,"schreiberweg, 31, vienna, austria",FALSE,16.3463812,48.2573539,2333.3333333333335,11.188176705998535,1,2
01503,Heiligenstadt,928,1190,amalgergasse,7,632/7,1197,Kaufvertrag,W,I,7.5,o gk,NA,FALSCH,FALSCH,FALSCH,FALSCH,NA,"Ein-, Zweifamilienhaus",3,J,04.08.2014,NA,1,1,1950,4287/2014,3450000,NA,FALSCH,100,FALSCH,NA,NA,FALSCH,NA,NA,"amalgergasse, 7, vienna, austria",TRUE,16.3884569,48.2069949,2882.2055137844613,11.49295749427148,0,NA
01511,Salmannsdorf,71,1190,salmannsdorfer strasse,26,251/1,1516,Kaufvertrag,W,I,4.5,g,NA,FALSCH,FALSCH,FALSCH,FALSCH,NA,"Ein-, Zweifamilienhaus",2,J,02.02.2011,NA,1,1,NA,1612/2011,3300000,NA,FALSCH,100,FALSCH,NA,NA,FALSCH,NA,NA,"salmannsdorfer strasse, 26, vienna, austria",TRUE,16.294652,48.2541883,2176.7810026385223,11.087980555624174,1,2
01215,Unter St.Veit,409,1130,larochegasse,33,280/6,1400,Kaufvertrag,W,II,NA,o,Schutzzone,FALSCH,FALSCH,FALSCH,FALSCH,NA,"Ein-, Zweifamilienhaus",NA,J,09.02.2015,NA,1,1,NA,372/15,3300000,NA,FALSCH,100,FALSCH,NA,NA,FALSCH,NA,NA,"larochegasse, 33, vienna, austria",FALSE,16.2845326,48.1852832,2357.1428571428573,11.202823481962936,1,1
01209,Ober St.Veit,2462,1130,am meisenbuehel,5,686/4,1930,Kaufvertrag,W,I,6.5,o,NA,FALSCH,FALSCH,FALSCH,FALSCH,NA,"Ein-, Zweifamilienhaus",2,J,28.03.2012,NA,1,1,1991,321/2014,3250000,NA,FALSCH,100,FALSCH,NA,NA,FALSCH,NA,NA,"am meisenbuehel, 5, vienna, austria",FALSE,16.2587326,48.1864822,1683.937823834197,10.717623155309823,1,1
01502,Grinzing,1120,1190,hocheneggasse,5,792/21,1957,Kaufvertrag,W,I,6.5,o,NA,FALSCH,FALSCH,FALSCH,FALSCH,NA,"Ein-, Zweifamilienhaus",3,J,22.12.2009,NA,1,1,NA,1096/2010,3100000,NA,FALSCH,50,FALSCH,NA,NA,FALSCH,Sww,50,"hocheneggasse, 5, vienna, austria",FALSE,16.3363989,48.2600004,1584.0572304547777,10.629408744196883,1,2
01514,Währing,2342,1180,hasenauerstrasse,63,1112/1,1200,Kaufvertrag,WII/GBII,NA,NA,NA,NA,FALSCH,FALSCH,FALSCH,FALSCH,NA,"Ein-, Zweifamilienhaus",NA,NA,06.04.1989,1/2,1,2,1924,2655/89,3088596,0,FALSCH,100,FALSCH,NA,NA,FALSCH,NA,NA,"hasenauerstrasse, 63, vienna, austria",FALSE,16.3315909,48.2336554,1286.915,10.329701052184822,1,2
01209,Ober St.Veit,487,1130,veitlissengasse,9,685/1,2829,Kaufvertrag,W,I,NA,NA,NA,FALSCH,FALSCH,FALSCH,FALSCH,NA,"Ein-, Zweifamilienhaus",NA,NA,17.12.2002,NA,1,1,1910,96/2003,3000000,NA,FALSCH,100,FALSCH,NA,NA,FALSCH,NA,NA,"veitlissengasse, 9, vienna, austria",FALSE,16.2607183,48.1869349,1060.4453870625662,10.050454608649078,1,1
01205,Hietzing,325,1130,kopfgasse,3,240/38,1252,Kaufvertrag,W,I,NA,o,Schutzzone,FALSCH,FALSCH,FALSCH,FALSCH,NA,"Ein-, Zweifamilienhaus",2,J,09.08.2012,NA,1,1,NA,21450/2012,2950000,NA,FALSCH,100,FALSCH,NA,NA,FALSCH,NA,NA,"kopfgasse, 3, vienna, austria",FALSE,16.2949057,48.1862419,2356.230031948882,11.202264676866035,1,1
01405,Ottakring,2273,1160,gallitzinstrasse,104,344/8,1484,Kaufvertrag,W,I,7.5,o,25%,FALSCH,FALSCH,FALSCH,FALSCH,NA,"Ein-, Zweifamilienhaus",2,J,29.04.2011,NA,1,1,NA,2567/2011,2900000,NA,FALSCH,100,FALSCH,NA,NA,FALSCH,NA,NA,"gallitzinstrasse, 104, vienna, austria",FALSE,16.2830624,48.21679580000001,1954.177897574124,10.93234609294358,1,1
01502,Grinzing,1104,1190,schreiberweg,50,642/4,1726,Kaufvertrag,W,I,7.5,o,NA,FALSCH,FALSCH,FALSCH,FALSCH,NA,"Ein-, Zweifamilienhaus",2,J,19.12.2013,NA,1,1,1957,436/2014,2900000,NA,FALSCH,100,FALSCH,NA,NA,FALSCH,NA,NA,"schreiberweg, 50, vienna, austria",FALSE,16.3448312,48.2578549,1680.1853997682504,10.71440472038543,0,NA
01502,Grinzing,1419,1190,krapfenwaldgasse,11,67/8,974,Kaufvertrag,W,I,6.5,o,NA,FALSCH,FALSCH,FALSCH,FALSCH,NA,"Ein-, Zweifamilienhaus",NA,NA,28.01.2013,NA,1,1,NA,870/2013,2834950,NA,FALSCH,100,FALSCH,NA,NA,FALSCH,NA,NA,"krapfenwaldgasse, 11, vienna, austria",FALSE,16.3379898,48.2597366,2910.6262833675564,11.507113897827974,1,2
01502,Grinzing,1397,1190,unterer schreiberweg,111,676/4,1034,Kaufvertrag,W,I,6.5,o,NA,FALSCH,FALSCH,FALSCH,FALSCH,NA,"Ein-, Zweifamilienhaus",NA,J,19.09.2012,NA,1,1,1977,103/2013,2800000,NA,FALSCH,100,FALSCH,NA,NA,FALSCH,NA,NA,"unterer schreiberweg, 111, vienna, austria",FALSE,16.3417471,48.2605094,2707.9303675048354,11.402974926179482,0,NA
01513,Untersievering,1081,1190,reinischgasse,11,746/3,2695,Kaufvertrag,WI/GBI,NA,NA,NA,NA,FALSCH,FALSCH,FALSCH,FALSCH,NA,"Ein-, Zweifamilienhaus",NA,NA,24.06.1992,1/1,1,1,1900,3681/92,2565351,0,FALSCH,40,FALSCH,NA,NA,FALSCH,SWW,I,"reinischgasse, 11, vienna, austria",TRUE,16.3285498,48.2540497,951.8927643784787,9.894655245436734,1,2
01510,Pötzleinsdorf,1457,1180,starkfriedgasse,43,165/1,2240,Kaufvertrag,WI/GBI,NA,NA,NA,NA,FALSCH,FALSCH,FALSCH,FALSCH,NA,"Ein-, Zweifamilienhaus",2,NA,07.09.1999,NA,1,1,0,5315/99,2543549,0,FALSCH,100,FALSCH,NA,NA,FALSCH,NA,NA,"starkfriedgasse, 43, vienna, austria",FALSE,16.3115066,48.2430517,1135.5129464285715,10.149128439532797,1,2
01205,Hietzing,288,1130,hietzinger hauptstrasse,29,240/50,1631,Kaufvertrag,W,II,4.5,o,NA,FALSCH,FALSCH,FALSCH,FALSCH,NA,"Ein-, Zweifamilienhaus",2,NA,29.06.2007,NA,1,1,1900,2025/07,2500000,NA,FALSCH,100,FALSCH,NA,NA,FALSCH,NA,NA,"hietzinger hauptstrasse, 29, vienna, austria",FALSE,16.2965235,48.186602,1532.8019619865113,10.581955597499652,1,1
01503,Heiligenstadt,1173,1190,unterer schreiberweg,20,613/61,1685,Kaufvertrag,W,I,7.5,o gk,BB,FALSCH,FALSCH,FALSCH,FALSCH,NA,"Ein-, Zweifamilienhaus",2,J,11.05.2009,NA,1,1,NA,3780/2009,2500000,NA,FALSCH,100,FALSCH,NA,NA,FALSCH,NA,NA,"unterer schreiberweg, 20, vienna, austria",FALSE,16.3489916,48.2587784,1483.679525222552,10.534963788142315,1,2
01509,Obersievering,779,1190,gspoettgraben,2,36/4,900,Kaufvertrag,W,I,4.5,o,NA,FALSCH,FALSCH,FALSCH,FALSCH,NA,"Ein-, Zweifamilienhaus",2,J,28.01.2011,NA,1,1,NA,1768/2011,2500000,NA,FALSCH,100,FALSCH,NA,NA,FALSCH,NA,NA,"gspoettgraben, 2, vienna, austria",FALSE,16.3137829,48.2564019,2777.777777777778,11.4397154729945,1,2
01502,Grinzing,754,1190,paul-ehrlich-gasse,4,450/19,2368,Kaufvertrag,W,I,7.5,o,NA,FALSCH,FALSCH,FALSCH,FALSCH,NA,"Ein-, Zweifamilienhaus",3,J,28.11.2014,NA,1,1,1920,2413/2015,2500000,NA,FALSCH,100,FALSCH,NA,NA,FALSCH,NA,NA,"paul-ehrlich-gasse, 4, vienna, austria",FALSE,16.3372185,48.2519258,1055.7432432432433,10.044043298582586,1,2
01514,Währing,1671,1180,gregor-mendel-strasse,25,995/4,1696,Kaufvertrag,WII/GBII,NA,NA,NA,NA,WAHR,FALSCH,FALSCH,WAHR,seit 14.2.1991,"Ein-, Zweifamilienhaus",NA,NA,11.07.1991,1/1,1,1,1897,3498/91,2496312,0,FALSCH,100,FALSCH,NA,NA,FALSCH,NA,NA,"gregor-mendel-strasse, 25, vienna, austria",TRUE,16.3375253,48.23300889999999,1471.882075471698,10.523446374571131,1,2
01806,Mauer,5675,1230,im gereute,3,599/2,1753,Kaufvertrag,W,I,6.5,o,NA,FALSCH,FALSCH,FALSCH,FALSCH,NA,"Ein-, Zweifamilienhaus",2,J,01.06.2012,NA,1,1,1990,20452/2012,2480000,NA,FALSCH,100,FALSCH,NA,NA,FALSCH,NA,NA,"im gereute, 3, vienna, austria",FALSE,16.2628294,48.1551205,1414.717626925271,10.466298409176787,1,1
01503,Heiligenstadt,1202,1190,rudolf-kassner-gasse,13,645/4,1252,Kaufvertrag,W,I,7.5,o gk,NA,FALSCH,FALSCH,FALSCH,FALSCH,NA,"Ein-, Zweifamilienhaus",3,J,31.07.2015,NA,1,1,1978,4918/2015,2450000,NA,FALSCH,100,FALSCH,NA,NA,FALSCH,NA,NA,"rudolf-kassner-gasse, 13, vienna, austria",FALSE,16.3504627,48.2553268,1956.8690095846646,10.934331471619402,1,2
01512,Unterdöbling,572,1190,hungerbergstrasse,18,403/12,1033,Kaufvertrag,W,I,7.5,o gk,NA,FALSCH,FALSCH,FALSCH,FALSCH,NA,"Ein-, Zweifamilienhaus",2,J,08.10.2015,NA,1,1,1977,5678/2015,2439676,NA,FALSCH,100,FALSCH,NA,NA,FALSCH,NA,NA,"hungerbergstrasse, 18, vienna, austria",TRUE,16.3452982,48.2496952,2361.73862536302,11.205633594546255,0,NA
01209,Ober St.Veit,1266,1130,beckgasse,39,1270/8,1135,Kaufvertrag,W,II,10.5,o,NA,FALSCH,FALSCH,FALSCH,FALSCH,NA,"Ein-, Zweifamilienhaus",3,NA,25.07.2007,NA,1,1,1900,2165/07,2425000,NA,FALSCH,100,FALSCH,NA,NA,FALSCH,NA,NA,"beckgasse, 39, vienna, austria",FALSE,16.2826964,48.1843963,2136.5638766519824,11.061076734445662,1,1
01205,Hietzing,117,1130,gloriettegasse,8,423,2281,Kaufvertrag,W,II,10.5,o,NA,FALSCH,FALSCH,FALSCH,FALSCH,NA,"Ein-, Zweifamilienhaus",3,J,29.11.2005,NA,1,1,1900,2821/2005,2400000,NA,FALSCH,100,FALSCH,NA,NA,FALSCH,NA,NA,"gloriettegasse, 8, vienna, austria",FALSE,16.2959714,48.1816702,1052.170100832968,10.03915224384583,0,NA
01806,Mauer,141,1230,maurer hauptplatz,8,551/1,2334,Kaufvertrag,W,I,6.5,g,NA,FALSCH,FALSCH,FALSCH,FALSCH,NA,"Ein-, Zweifamilienhaus",2,NA,01.08.2007,NA,1,1,1950,2760/07,2370000,NA,FALSCH,100,FALSCH,NA,NA,FALSCH,NA,NA,"maurer hauptplatz, 8, vienna, austria",FALSE,16.2679634,48.1511183,1015.4241645244216,9.98786678274036,0,NA
01510,Pötzleinsdorf,395,1180,hawelgasse,23,554/57,1936,Kaufvertrag,WI/GBI,NA,NA,NA,NA,FALSCH,FALSCH,FALSCH,FALSCH,NA,"Ein-, Zweifamilienhaus",NA,NA,29.04.1995,1/1,1,1,0,2493/96,2361867,0,FALSCH,100,FALSCH,NA,NA,FALSCH,NA,NA,"hawelgasse, 23, vienna, austria",TRUE,16.3067495,48.2390897,1219.9726239669421,10.252633058917246,1,2
01510,Pötzleinsdorf,13,1180,poetzleinsdorfer strasse,56,202,2001,Kaufvertrag,W,I,7.5,g,Schutzzone,FALSCH,FALSCH,FALSCH,FALSCH,NA,"Ein-, Zweifamilienhaus",3,J,25.06.2014,NA,1,1,1960,3786/2014,2350000,NA,FALSCH,100,FALSCH,NA,NA,FALSCH,NA,NA,"poetzleinsdorfer strasse, 56, vienna, austria",FALSE,16.3116624,48.24100989999999,1174.4127936031985,10.197723874208709,1,2
01207,Lainz,732,1130,pacassistrasse,25,140/27,914,Kaufvertrag,W,I,7.5,o,NA,FALSCH,FALSCH,FALSCH,FALSCH,NA,"Ein-, Zweifamilienhaus",2,J,11.12.2013,NA,1,1,1923,2931/13,2340000,NA,FALSCH,100,FALSCH,NA,NA,FALSCH,NA,NA,"pacassistrasse, 25, vienna, austria",FALSE,16.2890355,48.17459720000001,2560.1750547045954,11.322026744074785,1,1
01514,Währing,2351,1180,severin-schreiber-g.,8,1128/1,2326,Kaufvertrag,WII/GBII,NA,NA,NA,NA,FALSCH,FALSCH,FALSCH,WAHR,seit 14.2.1991,"Ein-, Zweifamilienhaus",NA,NA,29.04.1991,1/1,1,1,1927,3064/91,2325531,0,FALSCH,100,FALSCH,NA,NA,FALSCH,NA,NA,"severin-schreiber-g., 8, vienna, austria",TRUE,16.3307297,48.2325245,999.798366294067,9.965493359383304,1,2
01209,Ober St.Veit,2658,1130,meytensgasse,40,1172/37,1083,Kaufvertrag,W,II,10.5,o,NA,FALSCH,FALSCH,FALSCH,FALSCH,NA,"Ein-, Zweifamilienhaus",3,NA,30.03.2006,NA,1,1,1900,1041/06,2300000,NA,FALSCH,100,FALSCH,NA,NA,FALSCH,NA,NA,"meytensgasse, 40, vienna, austria",FALSE,16.2745738,48.186541,2123.730378578024,11.052384902885498,1,1
01502,Grinzing,164,1190,schreiberweg,108,693/1,946,Kaufvertrag,W,I,6.5,o,NA,FALSCH,FALSCH,FALSCH,FALSCH,NA,"Ein-, Zweifamilienhaus",2,J,11.08.2011,NA,1,1,NA,4708/2011,2300000,NA,FALSCH,100,FALSCH,NA,NA,FALSCH,NA,NA,"schreiberweg, 108, vienna, austria",FALSE,16.340375,48.2611141,2431.289640591966,11.24750605715443,1,2
01502,Grinzing,1193,1190,cobenzlgasse,130,914/5,1718,Kaufvertrag,W,I,6.5,o,NA,FALSCH,FALSCH,FALSCH,FALSCH,NA,"Ein-, Zweifamilienhaus",NA,J,15.03.2016,NA,1,1,NA,3413/2016,2300000,NA,FALSCH,100,FALSCH,NA,NA,FALSCH,NA,NA,"cobenzlgasse, 130, vienna, austria",FALSE,16.3285211,48.2655215,1338.7660069848662,10.386688109355362,1,2
01806,Mauer,465,1230,lindgrabengasse,25,763/1,2286,Kaufvertrag,W,I,6.5,o,NA,FALSCH,FALSCH,FALSCH,FALSCH,NA,"Ein-, Zweifamilienhaus",2,NA,28.02.2008,NA,1,1,1960,1133/08,2286000,NA,FALSCH,100,FALSCH,NA,NA,FALSCH,NA,NA,"lindgrabengasse, 25, vienna, austria",FALSE,16.3519321,48.2003803,1000,9.965784284662087,1,3
01806,Mauer,1957,1230,anton-krieger-gasse,72,1504/12,1449,Kaufvertrag,WI/GBI,NA,NA,NA,NA,FALSCH,FALSCH,FALSCH,FALSCH,NA,"Ein-, Zweifamilienhaus",NA,NA,05.09.1996,1/1,1,1,0,NA,2252858,0,FALSCH,100,FALSCH,NA,NA,FALSCH,NA,NA,"anton-krieger-gasse, 72, vienna, austria",TRUE,16.2718769,48.142791,1554.7674258109041,10.602483071626416,1,1
01209,Ober St.Veit,2045,1230,schweizertalstrasse,24,688/3,1856,Kaufvertrag,W,II,NA,o,NA,FALSCH,FALSCH,FALSCH,FALSCH,NA,"Ein-, Zweifamilienhaus",2,J,19.09.2006,NA,1,1,1880,1/2006,2250000,NA,FALSCH,100,FALSCH,NA,NA,FALSCH,NA,NA,"schweizertalstrasse, 24, vienna, austria",FALSE,16.264067,48.1861403,1212.2844827586207,10.243512575638915,0,NA
01805,Liesing,1241,1230,lechthalergasse,43,465/1,2101,Kaufvertrag,W,I,6.5,o,NA,FALSCH,FALSCH,FALSCH,FALSCH,NA,"Ein-, Zweifamilienhaus",1,NA,18.08.2004,NA,1,1,1950,3100/04,2200000,NA,FALSCH,100,FALSCH,NA,NA,FALSCH,NA,NA,"lechthalergasse, 43, vienna, austria",FALSE,16.263204000000002,48.1398725,1047.1204188481674,10.032211646401063,0,NA
01807,Rodaun,727,1230,an der au,6,207/60,943,Kaufvertrag,W,I,6.5,o,NA,FALSCH,FALSCH,FALSCH,FALSCH,NA,"Ein-, Zweifamilienhaus",2,J,13.05.2015,NA,1,1,2012,1931/15,2200000,NA,FALSCH,100,FALSCH,NA,NA,FALSCH,NA,NA,"an der au, 6, vienna, austria",TRUE,16.2695018,48.16127710000001,2332.979851537646,11.187958132399013,1,1
01510,Pötzleinsdorf,750,1180,starkfriedgasse,62,362/36,1039,Kaufvertrag,W,I,7.5,o gk,NA,FALSCH,FALSCH,FALSCH,FALSCH,NA,"Ein-, Zweifamilienhaus",2,J,30.10.2015,NA,1,1,2003,7646/2015,2200000,NA,FALSCH,100,FALSCH,NA,NA,FALSCH,NA,NA,"starkfriedgasse, 62, vienna, austria",TRUE,16.3096512,48.245979,2117.4205967276225,11.048092154169897,1,2
01508,Oberdöbling,900,1190,felix-mottl-strasse,23,869/43,737,Kaufvertrag,WII/GBII,NA,NA,NA,NA,WAHR,FALSCH,FALSCH,FALSCH,NA,"Ein-, Zweifamilienhaus",NA,NA,23.08.1995,1/1,1,1,0,5812/95,2180185,0,FALSCH,100,FALSCH,NA,NA,FALSCH,NA,NA,"felix-mottl-strasse, 23, vienna, austria",TRUE,16.3434686,48.2345155,2958.188602442334,11.530498320579186,1,2
01506,Neustift am Walde,456,1190,peter-altenberg-gasse,34,488/9,890,Kaufvertrag,W,I,7.5,o gk,NA,FALSCH,FALSCH,FALSCH,FALSCH,NA,"Ein-, Zweifamilienhaus",2,J,30.09.2015,NA,1,1,1937,7675/2015,2150000,NA,FALSCH,100,FALSCH,NA,NA,FALSCH,NA,NA,"peter-altenberg-gasse, 34, vienna, austria",FALSE,16.2918002,48.2506661,2415.7303370786517,11.23824370328515,1,2
01209,Ober St.Veit,1800,1130,goldmarkplatz,4,1172/76,1201,Kaufvertrag,WI/GBI,NA,NA,NA,NA,FALSCH,FALSCH,FALSCH,FALSCH,NA,"Ein-, Zweifamilienhaus",0,NA,11.04.1998,1/1,1,1,0,NA,2107512,0,FALSCH,100,FALSCH,NA,NA,FALSCH,NA,NA,"goldmarkplatz, 4, vienna, austria",FALSE,16.2763862,48.1861213,1754.7976686094921,10.777088979396195,1,1
01502,Grinzing,578,1190,krapfenwaldgasse,38,772/1,2308,Kaufvertrag,WI/GBI,NA,NA,NA,NA,FALSCH,FALSCH,FALSCH,FALSCH,NA,"Ein-, Zweifamilienhaus",NA,NA,02.02.1996,1/1,1,1,0,913/96,2071176,0,FALSCH,100,FALSCH,NA,NA,FALSCH,NA,NA,"krapfenwaldgasse, 38, vienna, austria",TRUE,16.3367695,48.2639354,897.3899480069324,9.809591213724607,1,2
01205,Hietzing,244,1130,lainzer strasse,8,244/1,1162,Kaufvertrag,W,II,NA,NA,NA,FALSCH,FALSCH,FALSCH,FALSCH,NA,"Ein-, Zweifamilienhaus",NA,NA,08.07.2004,NA,1,1,1900,2000/2004,2050000,NA,FALSCH,100,FALSCH,NA,NA,FALSCH,NA,NA,"lainzer strasse, 8, vienna, austria",FALSE,16.296882,48.1857226,1764.1996557659209,10.784798125650367,1,1
01512,Unterdöbling,494,1190,iglaseegasse,62,414/13,1011,Kaufvertrag,W,I,NA,o,NA,FALSCH,FALSCH,FALSCH,FALSCH,NA,"Ein-, Zweifamilienhaus",2,J,22.12.2015,NA,1,1,1970,792/2016,2050000,NA,FALSCH,100,FALSCH,NA,NA,FALSCH,NA,NA,"iglaseegasse, 62, vienna, austria",FALSE,16.34302,48.2477443,2027.6953511374877,10.985625197151881,1,2
01510,Pötzleinsdorf,264,1180,poetzleinsdorfer str.,162,515/3,2117,Kaufvertrag,WI/GBI,NA,NA,NA,NA,FALSCH,FALSCH,FALSCH,FALSCH,NA,"Ein-, Zweifamilienhaus",2,J,10.11.2000,NA,1,1,0,1624/01,2034839,0,FALSCH,100,FALSCH,NA,NA,FALSCH,NA,NA,"poetzleinsdorfer str., 162, vienna, austria",FALSE,16.3004475,48.2433087,961.189891355692,9.90867766578339,1,2
01514,Währing,1560,1180,cottagegasse,27,982/3,1018,Kaufvertrag,WII/GBII,NA,NA,NA,NA,FALSCH,FALSCH,FALSCH,FALSCH,NA,"Ein-, Zweifamilienhaus",3,NA,03.09.2001,NA,1,1,0,5569/01,2021758,0,FALSCH,100,FALSCH,NA,NA,FALSCH,NA,NA,"cottagegasse, 27, vienna, austria",FALSE,16.3408341,48.23119639999999,1986.0098231827112,10.955657043390376,1,2
01207,Lainz,1088,1130,nothartgasse,28,295/2,1032,Kaufvertrag,W,I,7.5,o,NA,FALSCH,FALSCH,FALSCH,FALSCH,NA,"Ein-, Zweifamilienhaus",2,J,11.07.2014,NA,1,1,NA,2058/14,2014760,NA,FALSCH,100,FALSCH,NA,NA,FALSCH,NA,NA,"nothartgasse, 28, vienna, austria",FALSE,16.2774361,48.1803194,1952.2868217054263,10.930949307774952,1,1
01207,Lainz,322,1130,sauraugasse,16,336/16,1021,Kaufvertrag,W,I,7.5,o,NA,FALSCH,FALSCH,FALSCH,FALSCH,NA,"Ein-, Zweifamilienhaus",2,J,17.02.2004,NA,1,1,1920,527/2004,2000000,NA,FALSCH,100,FALSCH,NA,NA,FALSCH,NA,NA,"sauraugasse, 16, vienna, austria",FALSE,16.279296,48.178969,1958.8638589618022,10.935801418446372,1,1
01205,Hietzing,41,1130,altgasse,23,56/1,703,Kaufvertrag,W,III,13.5,g,NA,FALSCH,FALSCH,FALSCH,FALSCH,NA,"Ein-, Zweifamilienhaus",3,J,20.02.2007,NA,1,1,1900,582/2007,2000000,NA,FALSCH,100,FALSCH,NA,NA,FALSCH,NA,NA,"altgasse, 23, vienna, austria",FALSE,16.2980042,48.1853987,2844.950213371266,11.47418769025164,1,1
01209,Ober St.Veit,2594,1130,goldmarkplatz,10,1216/41,916,Kaufvertrag,W,I,6.5,o,NA,FALSCH,FALSCH,FALSCH,FALSCH,NA,"Ein-, Zweifamilienhaus",3,J,21.06.2011,NA,1,1,1990,1662/2011,2000000,NA,FALSCH,100,FALSCH,NA,NA,FALSCH,NA,NA,"goldmarkplatz, 10, vienna, austria",FALSE,16.2778513,48.18534340000001,2183.406113537118,11.09236478122723,1,1
01209,Ober St.Veit,1407,1130,himmelhofgasse,16,520/100,913,Kaufvertrag,W,I,7.5,o,NA,FALSCH,FALSCH,FALSCH,FALSCH,NA,"Ein-, Zweifamilienhaus",NA,J,09.04.2014,NA,1,1,NA,1088/14,2000000,NA,FALSCH,100,FALSCH,NA,NA,FALSCH,NA,NA,"himmelhofgasse, 16, vienna, austria",FALSE,16.260102,48.1899409,2190.580503833516,11.097097519339952,1,1
01511,Salmannsdorf,214,1190,celtesgasse,13,181/4,808,Kaufvertrag,W,I,5.5,o,NA,FALSCH,FALSCH,FALSCH,FALSCH,NA,"Ein-, Zweifamilienhaus",3,J,07.01.2014,NA,1,1,1930,1724/2014,2000000,NA,FALSCH,100,FALSCH,NA,NA,FALSCH,NA,NA,"celtesgasse, 13, vienna, austria",FALSE,16.2958525,48.2534323,2475.2475247524753,11.27335708657238,1,2
01513,Untersievering,734,1190,hackenberggasse,13,451/1,991,Kaufvertrag,W,I,7.5,o gk,NA,FALSCH,FALSCH,FALSCH,FALSCH,NA,"Ein-, Zweifamilienhaus",2,J,28.10.2015,NA,1,1,1980,259/2016,2000000,NA,FALSCH,100,FALSCH,NA,NA,FALSCH,NA,NA,"hackenberggasse, 13, vienna, austria",FALSE,16.3268886,48.24570199999999,2018.1634712411706,10.978827322137686,1,2
01514,Währing,2333,1180,max-emanuel-strasse,17,1083/1,2071,Kaufvertrag,WII/GBII,NA,NA,NA,NA,FALSCH,FALSCH,FALSCH,FALSCH,NA,"Ein-, Zweifamilienhaus",NA,NA,16.08.1993,1/1,1,1,1922,4743/93,1962167,0,FALSCH,100,FALSCH,NA,NA,FALSCH,NA,NA,"max-emanuel-strasse, 17, vienna, austria",TRUE,16.331216,48.2365448,947.4490584258812,9.887904565636736,1,2
01514,Währing,2133,1180,rimplergasse,2,613/8,1077,Kaufvertrag,W,II,10.5,o,NA,FALSCH,FALSCH,FALSCH,FALSCH,NA,"Ein-, Zweifamilienhaus",2,J,03.02.2012,NA,1,1,NA,1513/2012,1950000,NA,FALSCH,100,FALSCH,NA,NA,FALSCH,NA,NA,"rimplergasse, 2, vienna, austria",TRUE,16.3293014,48.2354724,1810.5849582172702,10.822240158754852,1,2
01510,Pötzleinsdorf,320,1190,poetzleinsdorfer strasse,84,140/1,653,Kaufvertrag,W,I,7.5,g,Schutzzone,FALSCH,FALSCH,FALSCH,FALSCH,NA,"Ein-, Zweifamilienhaus",2,J,03.07.2013,NA,1,1,1960,4257/2013,1950000,NA,FALSCH,100,FALSCH,NA,NA,FALSCH,NA,NA,"poetzleinsdorfer strasse, 84, vienna, austria",FALSE,16.3094646,48.2422338,2986.217457886677,11.54410351175263,0,NA
01514,Währing,2489,1180,gustav-tschermak-gasse,13,1205,824,Kaufvertrag,W,II,NA,o,Wohn- und Schutzzone,FALSCH,FALSCH,FALSCH,FALSCH,NA,"Ein-, Zweifamilienhaus",4,J,05.06.2008,NA,1,1,1930,1559/2014,1936100,NA,FALSCH,100,FALSCH,NA,NA,FALSCH,NA,NA,"gustav-tschermak-gasse, 13, vienna, austria",FALSE,16.3392175,48.233398,2349.635922330097,11.198221512200906,0,NA
01503,Heiligenstadt,1047,1190,schreiberweg,48,653/6,1195,Kaufvertrag,WI/GBI,NA,NA,NA,NA,FALSCH,FALSCH,FALSCH,FALSCH,NA,"Ein-, Zweifamilienhaus",NA,NA,30.10.1991,1/1,1,1,1930,1771/92,1925830,0,FALSCH,100,FALSCH,NA,NA,FALSCH,NA,NA,"schreiberweg, 48, vienna, austria",TRUE,16.3450619,48.257861,1611.5732217573222,10.654254023333413,1,2
01209,Ober St.Veit,2599,1130,josef-pommer-gasse,8,741/27,944,Kaufvertrag,W,I,6.5,o,NA,FALSCH,FALSCH,FALSCH,FALSCH,NA,"Ein-, Zweifamilienhaus",2,J,25.07.2008,NA,1,1,1960,2518/2008,1920000,NA,FALSCH,NA,FALSCH,NA,NA,FALSCH,NA,NA,"josef-pommer-gasse, 8, vienna, austria",FALSE,16.2591115,48.18306930000001,2033.8983050847457,10.990031830908764,1,1
01305,Meidling,1879,1120,rollingergasse,7,.1305,1135,Kaufvertrag,W,III,NA,g,NA,FALSCH,FALSCH,FALSCH,FALSCH,NA,"Ein-, Zweifamilienhaus",6,J,28.06.2006,NA,1,1,NA,3803/06,1900000,NA,FALSCH,100,FALSCH,NA,NA,FALSCH,NA,NA,"rollingergasse, 7, vienna, austria",FALSE,16.3289493,48.1749318,1674.0088105726873,10.70909140570212,1,3
01508,Oberdöbling,898,1190,hasenauerstrasse,24,869/41,741,Kaufvertrag,W,II,10.5,o,Wohn- und Schutzzone,FALSCH,FALSCH,FALSCH,FALSCH,NA,"Ein-, Zweifamilienhaus",3,J,30.01.2015,NA,1,1,1950,844/2015,1890000,NA,FALSCH,100,FALSCH,NA,NA,FALSCH,NA,NA,"hasenauerstrasse, 24, vienna, austria",FALSE,16.3430458,48.23388910000001,2550.6072874493925,11.316625071464689,1,2
01501,Gersthof,765,1180,krenngasse,3,182/15,734,Kaufvertrag,W,II,10.5,o,NA,FALSCH,FALSCH,FALSCH,FALSCH,NA,"Ein-, Zweifamilienhaus",4,J,10.04.2014,NA,1,1,1970,1977/2014,1875000,NA,FALSCH,100,FALSCH,NA,NA,FALSCH,NA,NA,"krenngasse, 3, vienna, austria",TRUE,16.3210227,48.2297735,2554.4959128065393,11.31882291208948,1,2
01514,Währing,2222,1180,hermann-pacher-gasse,8,730/5,661,Kaufvertrag,W,I,7.5,o gk,NA,FALSCH,FALSCH,FALSCH,FALSCH,NA,"Ein-, Zweifamilienhaus",1,J,21.12.2015,NA,1,1,1975,402/2016,1867000,NA,FALSCH,100,FALSCH,NA,NA,FALSCH,NA,NA,"hermann-pacher-gasse, 8, vienna, austria",FALSE,16.3206923,48.2403693,2824.5083207261723,11.463784035380597,1,2
01205,Hietzing,414,1130,gloriettegasse,20,380/2,1061,Kaufvertrag,W,I,7.5,o,NA,FALSCH,FALSCH,FALSCH,FALSCH,NA,"Ein-, Zweifamilienhaus",2,J,29.12.2005,NA,1,1,1900,108/2006,1860000,NA,FALSCH,100,FALSCH,NA,NA,FALSCH,NA,NA,"gloriettegasse, 20, vienna, austria",FALSE,16.2928223,48.1826194,1753.0631479736098,10.775662249742716,1,1
01209,Ober St.Veit,1636,1130,veitlissengasse,15,675/10,702,Kaufvertrag,W,I,7.5,gk,NA,FALSCH,FALSCH,FALSCH,FALSCH,NA,"Ein-, Zweifamilienhaus",4,NA,27.10.2008,NA,1,1,1900,3056/08,1850000,NA,FALSCH,100,FALSCH,NA,NA,FALSCH,NA,NA,"veitlissengasse, 15, vienna, austria",FALSE,16.2595602,48.1870395,2635.327635327635,11.3637666197612,1,1
01209,Ober St.Veit,1199,1130,premreinergasse,36,265/5,1478,Kaufvertrag,W,I,7.5,gk,NA,FALSCH,FALSCH,FALSCH,FALSCH,NA,"Ein-, Zweifamilienhaus",2,J,16.09.2014,NA,1,1,NA,2505/14,1850000,NA,FALSCH,100,FALSCH,NA,NA,FALSCH,NA,NA,"premreinergasse, 36, vienna, austria",FALSE,16.2703637,48.1892832,1251.6914749661705,10.28966328591961,1,1
01502,Grinzing,1466,1190,kosselgasse,20,618/7,1212,Kaufvertrag,WI/GBI,NA,NA,NA,NA,FALSCH,FALSCH,FALSCH,FALSCH,NA,"Ein-, Zweifamilienhaus",0,NA,10.02.1997,1/1,1,1,0,5086/97,1834989,0,FALSCH,100,FALSCH,NA,NA,FALSCH,NA,NA,"kosselgasse, 20, vienna, austria",FALSE,16.3418182,48.2585794,1514.0173267326732,10.564166000585642,1,2
01215,Unter St.Veit,518,1130,hummelgasse,70,261/5,915,Kaufvertrag,W,III,NA,o,NA,FALSCH,FALSCH,FALSCH,FALSCH,NA,"Ein-, Zweifamilienhaus",3,J,25.06.2008,NA,1,1,1910,1748/2008,1820000,NA,FALSCH,100,FALSCH,NA,NA,FALSCH,NA,NA,"hummelgasse, 70, vienna, austria",FALSE,16.2820934,48.18702,1989.0710382513662,10.95787908657674,0,NA
01510,Pötzleinsdorf,511,1180,rupoldengasse,2,586/1,1195,Kaufvertrag,W,I,7.5,o gk,NA,FALSCH,FALSCH,FALSCH,FALSCH,NA,"Ein-, Zweifamilienhaus",NA,J,22.12.2014,NA,1,1,NA,4961/2015,1818900,NA,FALSCH,100,FALSCH,NA,NA,FALSCH,NA,NA,"rupoldengasse, 2, vienna, austria",FALSE,16.3084352,48.2383623,1522.0920502092051,10.571839894728662,1,2
01514,Währing,1576,1180,colloredogasse,31,995/2,1079,Kaufvertrag,WII/GBII,NA,NA,NA,NA,WAHR,FALSCH,FALSCH,WAHR,seit 14.2.1991,"Ein-, Zweifamilienhaus",NA,NA,17.07.1991,1/1,1,1,1898,3746/91,1816821,0,FALSCH,100,FALSCH,NA,NA,FALSCH,NA,NA,"colloredogasse, 31, vienna, austria",TRUE,16.3389767,48.2328053,1683.8007414272474,10.717505706698551,1,2
01508,Oberdöbling,234,1190,billrothstrasse,72,443,1368,Kaufvertrag,WI/GBI,NA,NA,NA,NA,WAHR,FALSCH,FALSCH,FALSCH,NA,"Ein-, Zweifamilienhaus",NA,NA,10.12.1991,1/1,1,1,1900,2869/92,1816821,0,FALSCH,100,FALSCH,NA,NA,FALSCH,NA,NA,"billrothstrasse, 72, vienna, austria",TRUE,16.3490068,48.2418345,1328.0855263157894,10.37513234130067,1,2
01513,Untersievering,1371,1190,bellevuestrasse,16,267/1,2800,Kaufvertrag,WI/GBI,NA,NA,NA,NA,WAHR,FALSCH,FALSCH,FALSCH,Vorgarten,"Ein-, Zweifamilienhaus",NA,NA,09.11.1992,1/1,1,1,1970,5571/92,1816821,0,FALSCH,100,FALSCH,NA,NA,FALSCH,NA,NA,"bellevuestrasse, 16, vienna, austria",TRUE,16.3277746,48.2504131,648.8646428571428,9.34177374435424,1,2
01513,Untersievering,998,1190,wolfsgrubergasse,10,778/25,999,Kaufvertrag,WI/GBI,NA,NA,NA,NA,FALSCH,FALSCH,FALSCH,FALSCH,NA,"Ein-, Zweifamilienhaus",2,NA,27.03.1998,NA,1,1,0,6539/98,1802286,0,FALSCH,100,FALSCH,NA,NA,FALSCH,NA,NA,"wolfsgrubergasse, 10, vienna, austria",FALSE,16.3256677,48.2558029,1804.0900900900901,10.817055668311346,1,2
01209,Ober St.Veit,1607,1230,bowitschgasse,8,4921,1448,Kaufvertrag,W,I,7.5,o,NA,FALSCH,FALSCH,FALSCH,FALSCH,NA,"Ein-, Zweifamilienhaus",3,J,07.07.2004,NA,1,1,1900,2817/04,1800000,NA,FALSCH,100,FALSCH,NA,NA,FALSCH,NA,NA,"bowitschgasse, 8, vienna, austria",FALSE,16.2625179,48.18788929999999,1243.0939226519338,10.279719588795919,1,1
01805,Liesing,1250,1230,romberggasse,7,538/3,1098,Kaufvertrag,W,I,6.5,ogk,NA,FALSCH,FALSCH,FALSCH,FALSCH,NA,"Ein-, Zweifamilienhaus",3,NA,14.10.2008,NA,1,1,2005,3289/08,1800000,NA,FALSCH,100,FALSCH,NA,NA,FALSCH,NA,NA,"romberggasse, 7, vienna, austria",FALSE,16.2591827,48.1409627,1639.344262295082,10.678903136873926,1,1
01401,Dornbach,14,1170,dornbacher strasse,81,269,763,Kaufvertrag,W,I,4.5,g,"Schutzzone, BB",FALSCH,FALSCH,FALSCH,FALSCH,NA,"Ein-, Zweifamilienhaus",2,J,23.03.2012,NA,1,1,NA,2029/2012,1800000,NA,FALSCH,100,FALSCH,NA,NA,FALSCH,NA,NA,"dornbacher strasse, 81, vienna, austria",TRUE,16.2947573,48.2302953,2359.1087811271295,11.204026229044594,1,2
01510,Pötzleinsdorf,1513,1180,poetzleinsdorfer strasse,110,60,842,Kaufvertrag,W,I,7.5,o,"Schutzzone, 20%",FALSCH,FALSCH,FALSCH,FALSCH,NA,"Ein-, Zweifamilienhaus",2,J,28.06.2012,NA,1,1,NA,21732/2012,1800000,NA,FALSCH,100,FALSCH,NA,NA,FALSCH,NA,NA,"poetzleinsdorfer strasse, 110, vienna, austria",FALSE,16.3055683,48.2437812,2137.7672209026127,11.061889052812727,0,NA
01513,Untersievering,1246,1190,willi-forst-weg,5,411/12,1172,Kaufvertrag,W,I,4.5,o,NA,FALSCH,FALSCH,FALSCH,FALSCH,NA,"Ein-, Zweifamilienhaus",2,J,27.08.2015,NA,1,1,2000,6494/2015,1800000,NA,FALSCH,100,FALSCH,NA,NA,FALSCH,NA,NA,"willi-forst-weg, 5, vienna, austria",FALSE,16.3251896,48.2473761,1535.8361774744028,10.584808621456876,1,2
01209,Ober St.Veit,1264,1130,st. veit-gasse,9,1270/6,746,Kaufvertrag,W,II,NA,gk,NA,FALSCH,FALSCH,FALSCH,FALSCH,NA,"Ein-, Zweifamilienhaus",2,J,17.07.2009,NA,1,1,1950,2219/09,1790000,NA,FALSCH,100,FALSCH,NA,NA,FALSCH,NA,NA,"st. veit-gasse, 9, vienna, austria",FALSE,16.2828193,48.1839492,2399.4638069705093,11.228496336558468,1,1
01510,Pötzleinsdorf,576,1180,eckpergasse,14,642/33,595,Kaufvertrag,W,II,NA,gk,Schutzzone,FALSCH,FALSCH,FALSCH,FALSCH,NA,"Ein-, Zweifamilienhaus",3,J,13.12.2013,NA,1,1,1970,6979/2013,1775000,NA,FALSCH,100,FALSCH,NA,NA,FALSCH,NA,NA,"eckpergasse, 14, vienna, austria",FALSE,16.3160838,48.2338381,2983.1932773109243,11.542641735746187,1,2
01510,Pötzleinsdorf,110,1180,poetzleinsdorfer hoehe,35,460/1,1228,Kaufvertrag,W,I,NA,o,NA,FALSCH,FALSCH,FALSCH,FALSCH,NA,"Ein-, Zweifamilienhaus",2,J,12.05.2014,NA,1,1,1970,2650/2014,1760000,NA,FALSCH,100,FALSCH,NA,NA,FALSCH,NA,NA,"poetzleinsdorfer hoehe, 35, vienna, austria",FALSE,16.3010561,48.2470936,1433.2247557003257,10.485049152816567,1,2
01503,Heiligenstadt,370,1190,probusgasse,23,27,786,Kaufvertrag,W,I,4.5,g,NA,FALSCH,FALSCH,FALSCH,FALSCH,NA,"Ein-, Zweifamilienhaus",2,J,28.06.2013,NA,1,1,1965,3943/2013,1750000,NA,FALSCH,100,FALSCH,NA,NA,FALSCH,NA,NA,"probusgasse, 23, vienna, austria",FALSE,16.3580838,48.2550161,2226.4631043256995,11.120537989123171,0,NA
01508,Oberdöbling,1931,1190,ohmanngasse,24,606/8,650,Kaufvertrag,W,I,7.5,o gk,NA,FALSCH,FALSCH,FALSCH,FALSCH,NA,"Ein-, Zweifamilienhaus",2,J,09.07.2015,NA,1,1,1990,4563/2015,1750000,NA,FALSCH,100,FALSCH,NA,NA,FALSCH,NA,NA,"ohmanngasse, 24, vienna, austria",FALSE,16.3482142,48.2417524,2692.3076923076924,11.394627583465962,1,2
01510,Pötzleinsdorf,663,1180,zuckerkandlgasse,4,351/2,1257,Kaufvertrag,WI/GBI,NA,NA,NA,NA,FALSCH,FALSCH,FALSCH,FALSCH,NA,"Ein-, Zweifamilienhaus",1,NA,02.12.1999,NA,1,1,0,7259/99,1744148,0,FALSCH,100,FALSCH,NA,NA,FALSCH,NA,NA,"zuckerkandlgasse, 4, vienna, austria",FALSE,16.3123645,48.2444347,1387.5481304693715,10.438322100366387,1,2
01508,Oberdöbling,1797,1190,peter-jordan-strasse,48,866/13,2255,Kaufvertrag,WII/GBII,NA,NA,NA,NA,FALSCH,FALSCH,FALSCH,FALSCH,NA,"Ein-, Zweifamilienhaus",2,NA,22.05.2000,NA,1,1,0,3664/00,1744148,0,FALSCH,100,FALSCH,NA,NA,FALSCH,NA,NA,"peter-jordan-strasse, 48, vienna, austria",FALSE,16.3400881,48.2372648,773.4580931263858,9.59517931664415,1,2
01501,Gersthof,578,1180,scheidlstrasse,44,187/14,779,Kaufvertrag,W,II,10.5,o gk,NA,FALSCH,FALSCH,FALSCH,FALSCH,NA,"Ein-, Zweifamilienhaus",2,J,13.03.2009,NA,1,1,NA,2484/2009,1720000,NA,FALSCH,100,FALSCH,NA,NA,FALSCH,NA,NA,"scheidlstrasse, 44, vienna, austria",FALSE,16.3230931,48.2299324,2207.95892169448,11.108497616189878,0,NA
01205,Hietzing,819,1130,gloriettegasse,29,392,840,Kaufvertrag,W,I,NA,g,NA,FALSCH,FALSCH,FALSCH,FALSCH,NA,"Ein-, Zweifamilienhaus",2,J,09.12.2008,NA,1,1,1900,3274/2008,1700000,NA,FALSCH,100,FALSCH,NA,NA,FALSCH,NA,NA,"gloriettegasse, 29, vienna, austria",FALSE,16.2941323,48.1817011,2023.8095238095239,10.982857798021028,1,1
01215,Unter St.Veit,310,1130,elsslergasse,9,283/38,818,Kaufvertrag,WII/GBII,NA,NA,NA,NA,FALSCH,FALSCH,FALSCH,FALSCH,NA,"Ein-, Zweifamilienhaus",2,NA,10.12.1997,1/1,1,1,0,5137/97,1678743,0,FALSCH,100,FALSCH,NA,NA,FALSCH,NA,NA,"elsslergasse, 9, vienna, austria",FALSE,16.2886101,48.1838831,2052.2530562347188,11.002992920317293,0,NA
01508,Oberdöbling,1678,1190,cottagegasse,53,866/48,1399,Kaufvertrag,WII/GBII,NA,NA,NA,NA,WAHR,FALSCH,FALSCH,FALSCH,NA,"Ein-, Zweifamilienhaus",NA,NA,31.10.1990,1/1,1,1,1912,6141/90,1671475,0,FALSCH,100,FALSCH,NA,NA,FALSCH,NA,NA,"cottagegasse, 53, vienna, austria",TRUE,16.3426768,48.2353919,1194.7641172265903,10.22251009910352,1,2
01209,Ober St.Veit,530,1130,ghelengasse,6,736/2,2493,Kaufvertrag,WI/GBI,NA,NA,NA,NA,FALSCH,FALSCH,FALSCH,FALSCH,NA,"Ein-, Zweifamilienhaus",1,NA,14.10.1997,1/1,1,1,0,4537/97,1671475,0,FALSCH,100,FALSCH,NA,NA,FALSCH,NA,NA,"ghelengasse, 6, vienna, austria",FALSE,16.2625113,48.1830958,670.4673084636984,9.389023178776773,1,1
01513,Untersievering,1437,1190,bellevuestrasse,31,245/5,1127,Kaufvertrag,WI/GBI,NA,NA,NA,NA,FALSCH,FALSCH,FALSCH,FALSCH,NA,"Ein-, Zweifamilienhaus",2,NA,26.11.1999,NA,1,1,0,6894/99,1671475,0,FALSCH,100,FALSCH,NA,NA,FALSCH,NA,NA,"bellevuestrasse, 31, vienna, austria",FALSE,16.3263305,48.2506902,1483.1188997338065,10.534418546096052,1,2
01201,Auhof,2132,1130,palmaygasse,27,2280,1507,Kaufvertrag,W,I,6.5,o gk,NA,FALSCH,FALSCH,FALSCH,FALSCH,NA,"Ein-, Zweifamilienhaus",3,J,28.08.2013,NA,1,1,NA,2041/13,1650000,NA,FALSCH,100,FALSCH,NA,NA,FALSCH,NA,NA,"palmaygasse, 27, vienna, austria",FALSE,16.2712288,48.162324,1094.890510948905,10.096570892197441,1,1
01201,Auhof,466,1130,hoerndlwaldgasse,4,1022,674,Kaufvertrag,W,I,6.5,gk,NA,FALSCH,FALSCH,FALSCH,FALSCH,NA,"Ein-, Zweifamilienhaus",NA,J,06.08.2013,NA,1,1,NA,2312/13,1650000,NA,FALSCH,100,FALSCH,NA,NA,FALSCH,NA,NA,"hoerndlwaldgasse, 4, vienna, austria",FALSE,16.2603177,48.169087,2448.0712166172107,11.257429812613406,1,1
01511,Salmannsdorf,235,1190,keylwerthgasse,2,116/8,1451,Kaufvertrag,W,I,7.5,o gk,NA,FALSCH,FALSCH,FALSCH,FALSCH,NA,"Ein-, Zweifamilienhaus",2,J,15.02.2013,NA,1,1,1995,4692/2013,1650000,NA,FALSCH,100,FALSCH,NA,NA,FALSCH,NA,NA,"keylwerthgasse, 2, vienna, austria",FALSE,16.2889543,48.2513028,1137.1467953135768,10.15120278972852,1,2
01502,Grinzing,968,1190,hornigweg,5,610/22,1904,Kaufvertrag,WI/GBI,NA,NA,NA,NA,FALSCH,FALSCH,FALSCH,FALSCH,NA,"Ein-, Zweifamilienhaus",NA,NA,05.12.1990,1/1,1,1,1962,6444/90,1635139,0,FALSCH,100,FALSCH,NA,NA,FALSCH,NA,NA,"hornigweg, 5, vienna, austria",TRUE,16.342903,48.2575,858.7914915966387,9.746164087664306,1,2
01651,Aspern,6096,1220,aspernstrasse,105,547/6,780,Kaufvertrag,GB,II,NA,g,NA,FALSCH,FALSCH,FALSCH,FALSCH,NA,"Ein-, Zweifamilienhaus",1,J,12.10.2016,NA,1,1,NA,5813/16,1610000,NA,FALSCH,100,FALSCH,NA,NA,FALSCH,NA,NA,"aspernstrasse, 105, vienna, austria",FALSE,16.4797511,48.2213635,2064.102564102564,11.011298943914456,1,4
01209,Ober St.Veit,3381,1130,schweizertalstrasse,54,741/24,807,Kaufvertrag,W,I,6.5,o,200 m²,FALSCH,FALSCH,FALSCH,FALSCH,NA,"Ein-, Zweifamilienhaus",NA,J,04.08.2015,NA,1,1,1965,2463/15,1605000,NA,FALSCH,100,FALSCH,NA,NA,FALSCH,NA,NA,"schweizertalstrasse, 54, vienna, austria",FALSE,16.2598451,48.1826958,1988.8475836431228,10.957717003393972,1,1
01205,Hietzing,8,1130,hietzinger hauptstrasse,8,124,1428,Kaufvertrag,W,I,8,g,NA,FALSCH,FALSCH,FALSCH,FALSCH,NA,"Ein-, Zweifamilienhaus",2,J,12.01.2007,NA,1,1,1900,591/2007,1600000,NA,FALSCH,100,FALSCH,NA,NA,FALSCH,NA,NA,"hietzinger hauptstrasse, 8, vienna, austria",FALSE,16.3027123,48.18712499999999,1120.4481792717088,10.129860210407712,1,1
01206,Hütteldorf,140,1140,wolfersberggasse,3,334,768,Kaufvertrag,W,I,7.5,o,NA,FALSCH,FALSCH,FALSCH,WAHR,NA,"Ein-, Zweifamilienhaus",NA,J,18.07.2013,NA,1,1,NA,3941/13,1600000,NA,FALSCH,100,FALSCH,NA,NA,FALSCH,NA,NA,"wolfersberggasse, 3, vienna, austria",FALSE,16.252134,48.20478809999999,2083.3333333333335,11.024677973715656,1,1
01207,Lainz,614,1130,pacassistrasse,55,157/4,1380,Kaufvertrag,W,I,7.5,o gk,NA,FALSCH,FALSCH,FALSCH,FALSCH,NA,"Ein-, Zweifamilienhaus",NA,J,04.07.2014,NA,1,1,NA,2605/14,1600000,NA,FALSCH,100,FALSCH,NA,NA,FALSCH,NA,NA,"pacassistrasse, 55, vienna, austria",TRUE,16.2864561,48.17651559999999,1159.4202898550725,10.17918792277128,1,1
01514,Währing,2134,1180,rimplergasse,4,618/6,921,Kaufvertrag,W,II,10.5,o,NA,FALSCH,FALSCH,FALSCH,FALSCH,NA,"Ein-, Zweifamilienhaus",3,J,16.04.2015,NA,1,1,1912,2118/2015,1600000,NA,FALSCH,100,FALSCH,NA,NA,FALSCH,NA,NA,"rimplergasse, 4, vienna, austria",FALSE,16.3290492,48.2355822,1737.242128121607,10.762583128345476,1,2
01508,Oberdöbling,753,1190,osterleitengasse,5,88,1906,Kaufvertrag,WI/GBI,NA,NA,NA,NA,FALSCH,FALSCH,FALSCH,FALSCH,NA,"Ein-, Zweifamilienhaus",2,NA,07.04.1999,NA,1,1,0,2852/99,1598802,0,FALSCH,100,FALSCH,NA,NA,FALSCH,NA,NA,"osterleitengasse, 5, vienna, austria",FALSE,16.3566501,48.23976529999999,838.8258132214061,9.712227448006443,1,2
01510,Pötzleinsdorf,168,1180,poetzleinsdorfer str.,42,234/1,2017,Kaufvertrag,WI/GBI,NA,NA,NA,NA,FALSCH,FALSCH,FALSCH,FALSCH,NA,"Ein-, Zweifamilienhaus",3,NA,17.04.2000,NA,1,1,0,3929/00,1580198,0,FALSCH,100,FALSCH,NA,NA,FALSCH,NA,NA,"poetzleinsdorfer str., 42, vienna, austria",FALSE,16.3131355,48.24060009999999,783.4397620228061,9.613678541215515,1,2
01510,Pötzleinsdorf,828,1180,geyergasse,9,562/14,952,Kaufvertrag,W,I,NA,o,Schutzzone,FALSCH,FALSCH,FALSCH,FALSCH,NA,"Ein-, Zweifamilienhaus",3,J,19.03.2009,NA,1,1,NA,1893/2009,1570000,NA,FALSCH,100,FALSCH,NA,NA,FALSCH,NA,NA,"geyergasse, 9, vienna, austria",FALSE,16.3145546,48.2371565,1649.1596638655462,10.687515365133132,1,2
01806,Mauer,4740,1230,gebirgsgasse,90,782,1131,Kaufvertrag,W,I,5.5,o gk,NA,FALSCH,FALSCH,FALSCH,FALSCH,NA,"Ein-, Zweifamilienhaus",NA,J,17.05.2013,NA,1,1,NA,1573/13,1565000,NA,FALSCH,100,FALSCH,NA,NA,FALSCH,NA,NA,"gebirgsgasse, 90, vienna, austria",FALSE,16.2522981,48.153066,1383.7312113174182,10.434348012492247,1,1
01510,Pötzleinsdorf,1671,1190,raffelspergergasse,30,375/3,1236,Kaufvertrag,WI/GBI,NA,NA,NA,NA,FALSCH,FALSCH,FALSCH,FALSCH,NA,"Ein-, Zweifamilienhaus",NA,NA,21.12.1990,1/1,1,1,1985,3493/91,1562466,0,FALSCH,100,FALSCH,NA,NA,FALSCH,NA,NA,"raffelspergergasse, 30, vienna, austria",TRUE,16.3151706,48.2451687,1264.131067961165,10.303930337808874,1,2
01502,Grinzing,772,1190,hungerbergstrasse,17,475/20,952,Kaufvertrag,W,I,7.5,o,NA,FALSCH,FALSCH,FALSCH,FALSCH,NA,"Ein-, Zweifamilienhaus",2,J,30.09.2013,NA,1,1,1980,6291/2013,1555500,NA,FALSCH,NA,FALSCH,NA,NA,FALSCH,NA,NA,"hungerbergstrasse, 17, vienna, austria",FALSE,16.3437223,48.25058800000001,1633.9285714285713,10.674129200888526,1,2
01201,Auhof,1495,1130,felixgasse,50,1601,874,Kaufvertrag,W,I,6.5,o,NA,FALSCH,FALSCH,FALSCH,FALSCH,NA,"Ein-, Zweifamilienhaus",NA,J,04.09.2015,NA,1,1,NA,2403/15,1550000,NA,FALSCH,100,FALSCH,NA,NA,FALSCH,NA,NA,"felixgasse, 50, vienna, austria",FALSE,16.2585301,48.1620764,1773.4553775743707,10.792347315323088,1,1
01603,Donaufeld,1242,1210,bruckhaufner hauptstrasse,31,2233/1,1013,Kaufvertrag,W,I,6.5,o gk,150 m²,FALSCH,FALSCH,FALSCH,FALSCH,NA,"Ein-, Zweifamilienhaus",NA,J,08.07.2013,NA,1,1,NA,3329/13,1550000,NA,FALSCH,100,FALSCH,NA,NA,FALSCH,NA,NA,"bruckhaufner hauptstrasse, 31, vienna, austria",FALSE,16.4055845,48.2417175,1530.1085883514313,10.579418326022548,0,NA
01514,Währing,279,1180,gregor-mendel-strasse,13,506/8,2236,Kaufvertrag,WII/GBII,NA,NA,NA,NA,FALSCH,FALSCH,FALSCH,FALSCH,NA,"Ein-, Zweifamilienhaus",2,NA,10.10.1997,NA,1,1,0,851/98,1540664,0,FALSCH,100,FALSCH,NA,NA,FALSCH,NA,NA,"gregor-mendel-strasse, 13, vienna, austria",FALSE,16.3372382,48.2310002,689.0268336314848,9.428416358470972,1,2
01513,Untersievering,1191,1190,delugstrasse,19,656/1,2451,Kaufvertrag,WI/GBI,NA,NA,NA,NA,FALSCH,FALSCH,FALSCH,FALSCH,NA,"Ein-, Zweifamilienhaus",NA,NA,08.06.1993,1/1,1,1,1930,3266/93,1533397,0,FALSCH,100,FALSCH,NA,NA,FALSCH,NA,NA,"delugstrasse, 19, vienna, austria",TRUE,16.3357884,48.2498367,625.6209710322318,9.289145062869354,1,2
01207,Lainz,931,1130,muehlbachergasse,8,1/11,1448,Kaufvertrag,W,I,10.5,o,NA,FALSCH,FALSCH,FALSCH,FALSCH,NA,"Ein-, Zweifamilienhaus",NA,NA,13.06.2003,NA,1,1,1920,1430/03,1530000,NA,FALSCH,100,FALSCH,NA,NA,FALSCH,NA,NA,"muehlbachergasse, 8, vienna, austria",FALSE,16.2853005,48.182534,1056.6298342541436,10.045254335158896,0,NA
01502,Grinzing,375,1190,grinzinger strasse,16,556,2126,Kaufvertrag,W,I,7.5,g,Schutzzone,FALSCH,FALSCH,FALSCH,FALSCH,NA,"Ein-, Zweifamilienhaus",2,J,03.02.2011,NA,1,1,NA,523/2011,1530000,NA,FALSCH,30,FALSCH,NA,NA,FALSCH,Sww,70,"grinzinger strasse, 16, vienna, austria",FALSE,16.3473812,48.253728,719.6613358419568,9.491174340710996,0,NA
01510,Pötzleinsdorf,275,1180,poetzleinsdorfer strasse,31,554/20,854,Kaufvertrag,W,I,NA,gr,Schutzzone,FALSCH,FALSCH,FALSCH,FALSCH,NA,"Ein-, Zweifamilienhaus",2,J,09.03.2015,NA,1,1,1960,2469/2015,1530000,NA,FALSCH,70,FALSCH,NA,NA,FALSCH,"W I 7,5m ogk",30,"poetzleinsdorfer strasse, 31, vienna, austria",FALSE,16.3142587,48.2397218,1791.5690866510538,10.807007962621611,1,2
01503,Heiligenstadt,996,1190,armbrustergasse,31,85/5,2384,Kaufvertrag,WI/GBI,NA,NA,NA,NA,FALSCH,FALSCH,FALSCH,FALSCH,NA,"Ein-, Zweifamilienhaus",0,NA,15.07.1996,1/1,1,1,0,3468/97,1526130,0,FALSCH,100,FALSCH,NA,NA,FALSCH,NA,NA,"armbrustergasse, 31, vienna, austria",TRUE,16.3551602,48.2562992,640.1552013422819,9.322277909046944,1,2
01213,Speising,822,1130,speisinger strasse,18,45,1889,Kaufvertrag,W,I,7.5,o,NA,FALSCH,FALSCH,FALSCH,FALSCH,NA,"Ein-, Zweifamilienhaus",2,NA,27.06.2006,NA,1,1,1900,1931/06,1518122,NA,FALSCH,100,FALSCH,NA,NA,FALSCH,NA,NA,"speisinger strasse, 18, vienna, austria",FALSE,16.2849628,48.1718528,803.6643726839598,9.650449316852919,1,1
01209,Ober St.Veit,2070,1130,matrasgasse,8,718/5,623,Kaufvertrag,W,I,6.5,o,NA,FALSCH,FALSCH,FALSCH,WAHR,NA,"Ein-, Zweifamilienhaus",NA,J,21.10.2016,NA,1,1,2014,2933/16,1505000,NA,FALSCH,100,FALSCH,NA,NA,FALSCH,NA,NA,"matrasgasse, 8, vienna, austria",FALSE,16.2611481,48.1845714,2415.7303370786517,11.23824370328515,1,1
01503,Heiligenstadt,793,1190,langackergasse,23,651/2,1079,Kaufvertrag,WI/GBI,NA,NA,NA,NA,FALSCH,FALSCH,FALSCH,FALSCH,NA,"Ein-, Zweifamilienhaus",3,NA,03.06.2002,NA,1,1,0,3408/02,1500000,0,FALSCH,100,FALSCH,NA,NA,FALSCH,NA,NA,"langackergasse, 23, vienna, austria",FALSE,16.3493487,48.2567381,1390.1760889712698,10.441051920557314,0,NA
01654,Eßling,885,1220,gruntzelstrasse,35,369/220,667,Kaufvertrag,WI/GBI,NA,NA,NA,NA,FALSCH,FALSCH,FALSCH,FALSCH,NA,"Ein-, Zweifamilienhaus",0,J,20.09.1995,NA,1,2,0,6592/95,1500000,0,FALSCH,100,FALSCH,NA,NA,FALSCH,NA,NA,"gruntzelstrasse, 35, vienna, austria",FALSE,16.5445708,48.2172644,1124.4377811094453,10.134988118860745,0,NA
01806,Mauer,213,1230,maurer lange gasse,5,95/2,2428,Kaufvertrag,W,I,4.5,g,Schutzzone,FALSCH,FALSCH,FALSCH,FALSCH,NA,"Ein-, Zweifamilienhaus",2,J,08.04.2008,NA,1,1,1900,1990/08,1500000,NA,FALSCH,100,FALSCH,NA,NA,FALSCH,NA,NA,"maurer lange gasse, 5, vienna, austria",FALSE,16.2764609,48.1480962,617.7924217462933,9.270978363789649,0,NA
01209,Ober St.Veit,3399,1130,novalisgasse,14,904/3,750,Kaufvertrag,W,I,6.5,o,NA,FALSCH,FALSCH,FALSCH,FALSCH,NA,"Ein-, Zweifamilienhaus",2,J,09.03.2009,NA,1,1,1980,1353/2009,1500000,NA,FALSCH,100,FALSCH,NA,NA,FALSCH,NA,NA,"novalisgasse, 14, vienna, austria",TRUE,16.2646972,48.1778036,2000,10.965784284662087,1,1
01509,Obersievering,419,1190,krottenbachstrasse,178,431/2,952,Kaufvertrag,W,I,7.5,gr,NA,FALSCH,FALSCH,FALSCH,FALSCH,NA,"Ein-, Zweifamilienhaus",3,NA,28.07.2009,NA,1,1,NA,5767/2009,1500000,NA,FALSCH,50,FALSCH,NA,NA,FALSCH,Eklw,50,"krottenbachstrasse, 178, vienna, austria",FALSE,16.3105829,48.2488287,1575.6302521008404,10.621713306737387,1,2
01401,Dornbach,2343,1170,montigasse,7,954/36,1274,Kaufvertrag,W,I,6.5,o gk,NA,FALSCH,FALSCH,FALSCH,FALSCH,NA,"Ein-, Zweifamilienhaus",2,J,19.01.2012,NA,1,1,NA,416/2012,1500000,NA,FALSCH,100,FALSCH,NA,NA,FALSCH,NA,NA,"montigasse, 7, vienna, austria",FALSE,16.3073463,48.2288152,1177.3940345368917,10.20138150778903,1,2
01205,Hietzing,631,1130,gloriettegasse,49,377,944,Kaufvertrag,W,I,4.5,o,NA,FALSCH,FALSCH,FALSCH,FALSCH,NA,"Ein-, Zweifamilienhaus",2,J,29.03.2012,NA,1,1,1900,978/2012,1500000,NA,FALSCH,100,FALSCH,NA,NA,FALSCH,NA,NA,"gloriettegasse, 49, vienna, austria",FALSE,16.2923527,48.1823748,1588.9830508474577,10.63388802068349,1,1
01508,Oberdöbling,409,1190,obkirchergasse,28,705/5,612,Kaufvertrag,W,II,NA,g,NA,FALSCH,FALSCH,FALSCH,FALSCH,NA,"Ein-, Zweifamilienhaus",1,J,09.12.2014,NA,1,1,1900,6718/2014,1500000,NA,FALSCH,30,FALSCH,NA,NA,FALSCH,W I  g,70,"obkirchergasse, 28, vienna, austria",TRUE,16.3420735,48.2433692,2450.9803921568628,11.259143227352679,1,2
01806,Mauer,268,1230,jesuitensteig,19,266,1559,Kaufvertrag,W,I,6.5,o,NA,FALSCH,FALSCH,FALSCH,FALSCH,NA,"Ein-, Zweifamilienhaus",NA,J,22.12.2015,NA,1,1,NA,952/16,1500000,962.1552,FALSCH,100,FALSCH,NA,NA,FALSCH,NA,NA,"jesuitensteig, 19, vienna, austria",FALSE,16.2718943,48.1492939,962.1552277100706,9.910125857347545,1,1
01806,Mauer,2029,1230,silvester-fruechtl-gasse,38,1452/2,1117,Kaufvertrag,W,I,6.5,o gk,NA,FALSCH,FALSCH,FALSCH,FALSCH,NA,"Ein-, Zweifamilienhaus",2,J,23.10.2013,NA,1,1,NA,1926/14,1495000,NA,FALSCH,100,FALSCH,NA,NA,FALSCH,NA,NA,"silvester-fruechtl-gasse, 38, vienna, austria",FALSE,16.2648405,48.1423386,1338.4064458370635,10.386300583264239,0,NA
01215,Unter St.Veit,572,1130,st.-veit-gasse,19,264/8,1120,Kaufvertrag,W,II,10.5,o gk,Schutzzone,FALSCH,FALSCH,FALSCH,FALSCH,NA,"Ein-, Zweifamilienhaus",NA,J,29.12.2015,NA,1,1,NA,482/16,1475000,NA,FALSCH,100,FALSCH,NA,NA,FALSCH,NA,NA,"st.-veit-gasse, 19, vienna, austria",FALSE,16.2834648,48.1852694,1316.9642857142858,10.363000506853687,1,1
01514,Währing,2293,1180,colloredogasse,21,1230,1999,Kaufvertrag,WII/GBII,NA,NA,NA,NA,FALSCH,FALSCH,FALSCH,WAHR,seit 14.2.1991,"Ein-, Zweifamilienhaus",NA,NA,08.07.1993,1/1,1,1,1980,4115/93,1453457,0,FALSCH,100,FALSCH,NA,NA,FALSCH,NA,NA,"colloredogasse, 21, vienna, austria",TRUE,16.3426779,48.2324855,727.0920460230116,9.505994203073715,1,2
01209,Ober St.Veit,2848,1130,adolfstorgasse,12,502/6,2405,Kaufvertrag,WI/GBI,NA,NA,NA,NA,FALSCH,FALSCH,FALSCH,FALSCH,NA,"Ein-, Zweifamilienhaus",NA,NA,07.08.1995,1/1,1,1,0,5875/95,1453457,0,FALSCH,100,FALSCH,NA,NA,FALSCH,NA,NA,"adolfstorgasse, 12, vienna, austria",TRUE,16.2592317,48.1882054,604.348024948025,9.239235781160938,1,1
01509,Obersievering,188,1190,sieveringer strasse,176,58,2147,Kaufvertrag,WI/GBI,NA,NA,NA,NA,FALSCH,FALSCH,FALSCH,FALSCH,NA,"Ein-, Zweifamilienhaus",NA,NA,23.10.1995,1/1,1,1,0,6910/95,1453457,0,FALSCH,100,FALSCH,NA,NA,FALSCH,NA,NA,"sieveringer strasse, 176, vienna, austria",TRUE,16.3158802,48.2552497,676.9711224965067,9.40295048395957,0,NA
01503,Heiligenstadt,349,1190,schreiberweg,3,651/1,1041,Kaufvertrag,WI/GBI,NA,NA,NA,NA,FALSCH,FALSCH,FALSCH,FALSCH,NA,"Ein-, Zweifamilienhaus",2,NA,20.05.1999,NA,1,1,0,2915/99,1453457,0,FALSCH,100,FALSCH,NA,NA,FALSCH,NA,NA,"schreiberweg, 3, vienna, austria",FALSE,16.3496118,48.2573102,1396.2122958693565,10.447302606518925,1,2
01515,Weinhaus,195,1180,severin-schreiber-g.,5,151,2440,Kaufvertrag,WII/GBII,NA,NA,NA,NA,FALSCH,FALSCH,FALSCH,FALSCH,NA,"Ein-, Zweifamilienhaus",0,NA,10.11.1999,NA,1,1,1950,5524/00,1453457,0,FALSCH,100,FALSCH,NA,NA,FALSCH,NA,NA,"severin-schreiber-g., 5, vienna, austria",FALSE,16.3308817,48.2319278,595.6790983606558,9.218391527368095,0,NA
01401,Dornbach,76,1170,promenadegasse,9,276,1155,Kaufvertrag,WI/GBI,NA,NA,NA,NA,FALSCH,FALSCH,FALSCH,FALSCH,NA,"Ein-, Zweifamilienhaus",2,NA,01.08.2002,NA,1,1,NA,4765/02,1453457,0,FALSCH,100,FALSCH,NA,NA,FALSCH,NA,NA,"promenadegasse, 9, vienna, austria",FALSE,16.2938859,48.229555,1258.404329004329,10.297379823514923,1,2
01304,Hetzendorf,449,1120,kaulbachstrasse,22,261/14,1519,Kaufvertrag,W,I,NA,o,NA,FALSCH,FALSCH,FALSCH,FALSCH,NA,"Ein-, Zweifamilienhaus",2,NA,27.10.2005,NA,1,1,1900,2871/05,1450000,NA,FALSCH,100,FALSCH,NA,NA,FALSCH,NA,NA,"kaulbachstrasse, 22, vienna, austria",FALSE,16.3091164,48.1646884,954.5753785385122,9.8987153150623,1,1
01201,Auhof,1241,1130,overbeckgasse,23,2560,499,Kaufvertrag,W,I,6.5,gr,NA,FALSCH,FALSCH,FALSCH,FALSCH,NA,"Ein-, Zweifamilienhaus",1,J,09.04.2001,NA,1,1,1930,1242/01,1450000,NA,FALSCH,100,FALSCH,NA,NA,FALSCH,NA,NA,"overbeckgasse, 23, vienna, austria",FALSE,16.2746335,48.16153569999999,2905.811623246493,11.504725464227123,0,NA
01506,Neustift am Walde,358,1190,neustift am walde,59,29/4,650,Kaufvertrag,W,I,7.5,o,NA,FALSCH,FALSCH,FALSCH,FALSCH,NA,"Ein-, Zweifamilienhaus",2,J,01.03.2011,NA,1,1,NA,1151/2011,1450000,NA,FALSCH,100,FALSCH,NA,NA,FALSCH,NA,NA,"neustift am walde, 59, vienna, austria",TRUE,16.3032328,48.25012479999999,2230.769230769231,11.123325561648567,1,2
01512,Unterdöbling,14,1190,paradisgasse,24,288/1,1294,Kaufvertrag,W,I,NA,gr,NA,FALSCH,FALSCH,FALSCH,FALSCH,NA,"Ein-, Zweifamilienhaus",2,J,23.07.2014,NA,1,1,1950,5073/2014,1450000,NA,FALSCH,100,FALSCH,NA,NA,FALSCH,NA,NA,"paradisgasse, 24, vienna, austria",FALSE,16.3487109,48.2482175,1120.5564142194744,10.129999567571875,0,NA
01502,Grinzing,1315,1190,unterer schreiberweg,59,642/1,814,Kaufvertrag,W,I,7.5,o,NA,FALSCH,FALSCH,FALSCH,FALSCH,NA,"Ein-, Zweifamilienhaus",3,J,17.06.2010,NA,1,1,NA,4038/10,1447500,NA,FALSCH,100,FALSCH,NA,NA,FALSCH,NA,NA,"unterer schreiberweg, 59, vienna, austria",FALSE,16.3454102,48.2588606,1778.2555282555284,10.796246933272439,1,2
01215,Unter St.Veit,447,1130,beckgasse,34,274/8,968,Kaufvertrag,W,I,6.5,o,NA,FALSCH,FALSCH,FALSCH,FALSCH,NA,"Ein-, Zweifamilienhaus",2,J,03.08.2005,NA,1,1,1900,1912/2005,1440000,NA,FALSCH,100,FALSCH,NA,NA,FALSCH,NA,NA,"beckgasse, 34, vienna, austria",FALSE,16.28498,48.1843293,1487.603305785124,10.538774143717168,1,1
01510,Pötzleinsdorf,591,1180,glanzinggasse,10,348/12,1098,Kaufvertrag,W,I,7.5,o gk,BB,FALSCH,FALSCH,FALSCH,FALSCH,NA,"Ein-, Zweifamilienhaus",2,J,20.10.2010,NA,1,1,NA,6001/2010,1430000,NA,FALSCH,100,FALSCH,NA,NA,FALSCH,NA,NA,"glanzinggasse, 10, vienna, austria",TRUE,16.3140184,48.2443573,1302.367941712204,10.34692137732264,1,2
01502,Grinzing,1343,1190,grinzinger steig,11,656/23,1055,Kaufvertrag,WI/GBI,NA,NA,NA,NA,FALSCH,FALSCH,FALSCH,FALSCH,NA,"Ein-, Zweifamilienhaus",NA,NA,02.06.1993,1/1,1,1,1980,4473/93,1417120,0,FALSCH,100,FALSCH,NA,NA,FALSCH,NA,NA,"grinzinger steig, 11, vienna, austria",TRUE,16.3438659,48.2582342,1343.2417061611375,10.391503214821663,1,2
01502,Grinzing,416,1190,cobenzlgasse,54,792/8,1338,Kaufvertrag,WI/GBI,NA,NA,NA,NA,FALSCH,FALSCH,FALSCH,FALSCH,NA,"Ein-, Zweifamilienhaus",NA,NA,05.10.1993,1/1,1,1,1899,5960/93,1417120,0,FALSCH,100,FALSCH,NA,NA,FALSCH,NA,NA,"cobenzlgasse, 54, vienna, austria",TRUE,16.3365102,48.2590726,1059.1330343796712,10.04866809777475,1,2
01209,Ober St.Veit,496,1130,schweizertalstrasse,30,693/1,2405,Kaufvertrag,WI/GBI,NA,NA,NA,NA,FALSCH,FALSCH,FALSCH,FALSCH,NA,"Ein-, Zweifamilienhaus",0,NA,27.02.2001,NA,1,1,1910,1815/01,1417120,0,FALSCH,100,FALSCH,NA,NA,FALSCH,NA,NA,"schweizertalstrasse, 30, vienna, austria",FALSE,16.2628448,48.1858288,589.2390852390853,9.202709319758807,1,1
01651,Aspern,453,1220,haberlandtgasse,12,506/9,1825,Kaufvertrag,GB,I,7.5,g,40%,FALSCH,FALSCH,FALSCH,FALSCH,NA,"Ein-, Zweifamilienhaus",NA,J,07.10.2014,NA,1,1,NA,4957/14,1415000,NA,FALSCH,100,FALSCH,NA,NA,FALSCH,NA,NA,"haberlandtgasse, 12, vienna, austria",TRUE,16.4830473,48.2195212,775.3424657534247,9.59868987372659,0,NA
01510,Pötzleinsdorf,1433,1180,zuckerkandlgasse,19,360/36,653,Kaufvertrag,W,I,7.5,o gk,NA,FALSCH,FALSCH,FALSCH,FALSCH,NA,"Ein-, Zweifamilienhaus",2,J,29.10.2015,NA,1,1,2003,6563/2015,1410000,NA,FALSCH,100,FALSCH,NA,NA,FALSCH,NA,NA,"zuckerkandlgasse, 19, vienna, austria",TRUE,16.3102681,48.2455744,2159.2649310872894,11.076324550401813,1,2
01508,Oberdöbling,973,1190,felix mattl-str.,33,870/61,662,Kaufvertrag,WII/GBII,NA,NA,NA,NA,FALSCH,FALSCH,FALSCH,FALSCH,NA,"Ein-, Zweifamilienhaus",3,NA,21.12.2004,NA,1,1,NA,57/2005,1400000,NA,FALSCH,100,FALSCH,NA,NA,FALSCH,NA,NA,"felix mattl-str., 33, vienna, austria",FALSE,16.3415959,48.2349998,2114.8036253776436,11.046307989687199,1,2
01205,Hietzing,431,1130,hietzinger hauptstrasse,42,224/14,1070,Kaufvertrag,W,II,NA,NA,NA,FALSCH,FALSCH,FALSCH,FALSCH,NA,"Ein-, Zweifamilienhaus",2,NA,08.05.2006,NA,1,1,1900,1060/06,1400000,NA,FALSCH,100,FALSCH,NA,NA,FALSCH,NA,NA,"hietzinger hauptstrasse, 42, vienna, austria",FALSE,16.291431,48.18716879999999,1308.411214953271,10.353600315205906,1,1
01305,Meidling,2505,1120,hohenbergstrasse,50,128/5,2523,Kaufvertrag,W,I,7.5,o,NA,FALSCH,FALSCH,FALSCH,FALSCH,NA,"Ein-, Zweifamilienhaus",3,NA,28.12.2007,NA,1,1,1960,561/08,1400000,NA,FALSCH,100,FALSCH,NA,NA,FALSCH,NA,NA,"hohenbergstrasse, 50, vienna, austria",FALSE,16.3170287,48.17667789999999,554.8949663099485,9.116070905518116,1,3
01806,Mauer,5831,1230,haymagasse,79,1415/2,1897,Kaufvertrag,W,I,6.5,6,NA,FALSCH,FALSCH,FALSCH,FALSCH,NA,"Ein-, Zweifamilienhaus",2,J,21.10.2004,NA,1,1,2000,2986/04,1400000,NA,FALSCH,100,FALSCH,NA,NA,FALSCH,NA,NA,"haymagasse, 79, vienna, austria",FALSE,16.2650361,48.1456185,738.0073800738007,9.52749143308294,0,NA
01205,Hietzing,172,1130,gloriettegasse,43,382,1014,Kaufvertrag,W,I,NA,g,NA,FALSCH,FALSCH,FALSCH,FALSCH,NA,"Ein-, Zweifamilienhaus",2,J,13.03.2007,NA,1,1,1900,985/2007,1400000,NA,FALSCH,100,FALSCH,NA,NA,FALSCH,NA,NA,"gloriettegasse, 43, vienna, austria",FALSE,16.2928492,48.1819764,1380.670611439842,10.431153459491075,1,1
01515,Weinhaus,1,1180,lacknergasse,85,14/2,1187,Kaufvertrag,W,I,6,g,Schutzzone,FALSCH,FALSCH,FALSCH,FALSCH,NA,"Ein-, Zweifamilienhaus",2,J,17.12.2010,NA,1,1,NA,342/2011,1400000,NA,FALSCH,100,FALSCH,NA,NA,FALSCH,NA,NA,"lacknergasse, 85, vienna, austria",FALSE,16.3336244,48.2277178,1179.4439764111205,10.20389117685251,0,NA
01506,Neustift am Walde,69,1190,neustift am walde,61,30/1,1194,Kaufvertrag,W,I,4.5,g,Schutzzone,FALSCH,FALSCH,FALSCH,FALSCH,NA,"Ein-, Zweifamilienhaus",1,J,16.07.2010,NA,1,1,NA,4491/2010,1400000,NA,FALSCH,100,FALSCH,NA,NA,FALSCH,NA,NA,"neustift am walde, 61, vienna, austria",TRUE,16.3027506,48.2503479,1172.5293132328309,10.19540827522961,1,2
01508,Oberdöbling,2039,1190,telekygasse,9,833/50,625,Kaufvertrag,W,I,6.5,g,NA,FALSCH,FALSCH,FALSCH,FALSCH,NA,"Ein-, Zweifamilienhaus",1,J,06.08.2013,NA,1,1,1990,4406/2013,1400000,NA,FALSCH,100,FALSCH,NA,NA,FALSCH,NA,NA,"telekygasse, 9, vienna, austria",FALSE,16.3380299,48.2395012,2240,11.129283016944967,0,NA
01506,Neustift am Walde,513,1190,sommerhaidenweg,63,492/5,1000,Kaufvertrag,W,I,7.5,o,NA,FALSCH,FALSCH,FALSCH,FALSCH,NA,"Ein-, Zweifamilienhaus",2,J,04.06.2010,NA,1,1,NA,3210/2010,1382500,NA,FALSCH,100,FALSCH,NA,NA,FALSCH,NA,NA,"sommerhaidenweg, 63, vienna, austria",FALSE,16.2896058,48.2503479,1382.5,10.43306376512207,1,2
01215,Unter St.Veit,464,1130,kupelwiesergasse,28,280/61,848,Kaufvertrag,WII/GBII,NA,NA,NA,NA,WAHR,FALSCH,FALSCH,FALSCH,NA,"Ein-, Zweifamilienhaus",NA,NA,27.06.1990,1/1,1,1,0,4056/90,1380784,0,FALSCH,100,FALSCH,NA,NA,FALSCH,NA,NA,"kupelwiesergasse, 28, vienna, austria",FALSE,16.287846300000002,48.1859668,1628.2830188679245,10.669135767085734,1,1
01207,Lainz,451,1130,wambachergasse,10,336/27 u. 336/36,964,Kaufvertrag,WI/GBI,NA,NA,NA,NA,FALSCH,FALSCH,FALSCH,FALSCH,NA,"Ein-, Zweifamilienhaus",2,NA,07.09.1998,NA,1,1,1920,2620/98,1380784,0,FALSCH,100,FALSCH,NA,NA,FALSCH,NA,NA,"wambachergasse, 10, vienna, austria",FALSE,16.2802693,48.1781633,1432.3485477178424,10.484166885418972,1,1
01209,Ober St.Veit,1811,1130,goldmarkplatz,3,1172/109,1120,Kaufvertrag,WI/GBI,NA,NA,NA,NA,FALSCH,FALSCH,FALSCH,FALSCH,NA,"Ein-, Zweifamilienhaus",3,NA,04.12.2000,NA,1,1,1930,1158/01,1380784,0,FALSCH,100,FALSCH,NA,NA,FALSCH,NA,NA,"goldmarkplatz, 3, vienna, austria",FALSE,16.2764087,48.1858245,1232.8428571428572,10.267773204703968,1,1
01215,Unter St.Veit,368,1130,eitelbergergasse,27,307/23,1246,Kaufvertrag,W,II,NA,o,NA,FALSCH,FALSCH,FALSCH,FALSCH,NA,"Ein-, Zweifamilienhaus",2,J,17.06.2003,NA,1,1,1920,1656/2003,1380000,NA,FALSCH,100,FALSCH,NA,NA,FALSCH,NA,NA,"eitelbergergasse, 27, vienna, austria",FALSE,16.2913667,48.1861596,1107.5441412520065,10.113148483303616,1,1
01213,Speising,152,1130,fasangartengasse,34,320/1,1331,Kaufvertrag,W,II,NA,g,NA,FALSCH,FALSCH,FALSCH,FALSCH,NA,"Ein-, Zweifamilienhaus",NA,N,16.10.2013,NA,1,1,NA,2471/13,1380000,NA,FALSCH,20,FALSCH,NA,NA,FALSCH,"WI 6,5ogk",80,"fasangartengasse, 34, vienna, austria",FALSE,16.2883074,48.1738334,1036.8144252441773,10.017941980415726,1,1
01651,Aspern,1172,1220,haberlandtgasse,7,506/40,1232,Kaufvertrag,W,I,7.5,o gk,NA,FALSCH,FALSCH,FALSCH,FALSCH,NA,"Ein-, Zweifamilienhaus",2,J,21.11.2013,NA,1,1,NA,5269/13,1380000,NA,FALSCH,100,FALSCH,NA,NA,FALSCH,NA,NA,"haberlandtgasse, 7, vienna, austria",FALSE,16.4827167,48.2201418,1120.1298701298701,10.129450295632717,1,4
01209,Ober St.Veit,2619,1130,bossigasse,27,1216/19,821,Kaufvertrag,W,I,6.5,o,NA,FALSCH,FALSCH,FALSCH,FALSCH,NA,"Ein-, Zweifamilienhaus",NA,J,05.11.2015,NA,1,1,NA,3397/15,1375000,NA,FALSCH,100,FALSCH,NA,NA,FALSCH,NA,NA,"bossigasse, 27, vienna, austria",TRUE,16.2799576,48.1861125,1674.7868453105968,10.709761776183667,1,1
01806,Mauer,596,1230,grauertgasse,9,899/1,1560,Kaufvertrag,W,I,6.5,o,NA,FALSCH,FALSCH,FALSCH,FALSCH,NA,"Ein-, Zweifamilienhaus",1,J,20.05.2003,NA,1,1,1990,1892/2003,1373400,NA,FALSCH,100,FALSCH,NA,NA,FALSCH,NA,NA,"grauertgasse, 9, vienna, austria",FALSE,16.2572526,48.15449460000001,880.3846153846154,9.781990124301958,1,1
01510,Pötzleinsdorf,1198,1180,duerwaringstrasse,49,636/7,706,Kaufvertrag,W,II,10.5,o gk,NA,FALSCH,FALSCH,FALSCH,FALSCH,NA,"Ein-, Zweifamilienhaus",NA,J,16.12.2015,NA,1,1,NA,1230/2016,1370000,NA,FALSCH,100,FALSCH,NA,NA,FALSCH,NA,NA,"duerwaringstrasse, 49, vienna, austria",TRUE,16.3137908,48.2352676,1940.5099150141643,10.922220089238795,1,2
01209,Ober St.Veit,1408,NA,himmelhofgasse,14,520/101,918,Kaufvertrag,W,I,7.5,o,NA,FALSCH,FALSCH,FALSCH,FALSCH,NA,"Ein-, Zweifamilienhaus",2,J,27.01.2005,NA,1,1,1930,521/05,1350000,NA,FALSCH,100,FALSCH,NA,NA,FALSCH,NA,NA,"himmelhofgasse, 14, vienna, austria",FALSE,16.2602662,48.1898088,1470.5882352941176,10.522177633186471,0,NA
01401,Dornbach,2481,1170,merktweg,8,593/7,1324,Kaufvertrag,W,I,7.5,o,NA,FALSCH,FALSCH,FALSCH,FALSCH,NA,"Ein-, Zweifamilienhaus",2,J,06.06.2012,NA,1,1,NA,21347/2012,1350000,NA,FALSCH,100,FALSCH,NA,NA,FALSCH,NA,NA,"merktweg, 8, vienna, austria",FALSE,16.2876182,48.2288898,1019.6374622356495,9.993840569793063,1,2
01306,Rudolfsheim,1116,1150,benedikt-schellinger-gasse,8,.592,615,Kaufvertrag,W,III,NA,g,NA,FALSCH,FALSCH,FALSCH,FALSCH,NA,"Ein-, Zweifamilienhaus",5,J,22.06.2012,NA,1,1,1900,21480/2012,1340000,NA,FALSCH,100,FALSCH,NA,NA,FALSCH,NA,NA,"benedikt-schellinger-gasse, 8, vienna, austria",FALSE,16.33036,48.1968576,2178.8617886178863,11.08935896978062,1,2
01806,Mauer,5236,1230,haymogasse,140,1327/7,793,Kaufvertrag,W,I,6.5,o,NA,FALSCH,FALSCH,FALSCH,FALSCH,NA,"Ein-, Zweifamilienhaus",2,J,30.06.2011,NA,1,1,1970,2398/2011,1330000,NA,FALSCH,100,FALSCH,NA,NA,FALSCH,NA,NA,"haymogasse, 140, vienna, austria",TRUE,16.257255,48.14654549999999,1677.1752837326608,10.71181775934666,1,1
01213,Speising,721,1130,klitschgasse,38,475/11,839,Kaufvertrag,W,I,7.5,o,NA,FALSCH,FALSCH,FALSCH,FALSCH,NA,"Ein-, Zweifamilienhaus",3,J,14.09.2013,NA,1,1,NA,2401/13,1320000,NA,FALSCH,100,FALSCH,NA,NA,FALSCH,NA,NA,"klitschgasse, 38, vienna, austria",TRUE,16.2827384,48.1647092,1573.3015494636472,10.61957949846808,1,1
01205,Hietzing,297,1130,wenzgasse,24,240/17,972,Kaufvertrag,WII/GBII,NA,NA,NA,NA,FALSCH,FALSCH,FALSCH,FALSCH,NA,"Ein-, Zweifamilienhaus",0,NA,05.04.2001,NA,1,1,1910,1384/01,1315378,0,FALSCH,100,FALSCH,NA,NA,FALSCH,NA,NA,"wenzgasse, 24, vienna, austria",FALSE,16.2939199,48.1865232,1353.2695473251028,10.402233511898322,1,1
01213,Speising,846,1130,jakob-stainer-gasse,17,544/6,557,Kaufvertrag,W,I,7.5,o,NA,FALSCH,FALSCH,FALSCH,FALSCH,NA,"Ein-, Zweifamilienhaus",NA,J,22.09.2016,NA,1,1,NA,2861/16,1313450,NA,FALSCH,100,FALSCH,NA,NA,FALSCH,NA,NA,"jakob-stainer-gasse, 17, vienna, austria",TRUE,16.2817611,48.1697465,2358.0789946140035,11.203396333441582,1,1
01510,Pötzleinsdorf,448,1180,hockegasse,98,554/110,1365,Kaufvertrag,WII/GBII,NA,NA,NA,NA,FALSCH,FALSCH,FALSCH,FALSCH,NA,"Ein-, Zweifamilienhaus",NA,NA,06.05.1991,2106/2200,2106,2200,1910,2438/91,1308111,0,FALSCH,100,FALSCH,NA,NA,FALSCH,NA,NA,"hockegasse, 98, vienna, austria",TRUE,16.3087894,48.2397934,917.3765454545454,9.84137021231453,1,2
01513,Untersievering,991,1190,wolfsgrubergasse,22,778/17,1659,Kaufvertrag,WI/GBI,NA,NA,NA,NA,FALSCH,FALSCH,FALSCH,FALSCH,NA,"Ein-, Zweifamilienhaus",NA,NA,27.05.1993,1/1,1,1,1980,3083/93,1308111,0,FALSCH,100,FALSCH,NA,NA,FALSCH,NA,NA,"wolfsgrubergasse, 22, vienna, austria",TRUE,16.3261119,48.25630169999999,788.493670886076,9.622955364552187,1,2
01507,Nußdorf,215,1190,freihofgasse,4,134/1,1036,Kaufvertrag,WI/GBI,NA,NA,NA,NA,WAHR,FALSCH,FALSCH,FALSCH,NA,"Ein-, Zweifamilienhaus",NA,NA,11.07.1994,1/1,1,1,1900,5223/94,1308111,0,FALSCH,100,FALSCH,NA,NA,FALSCH,NA,NA,"freihofgasse, 4, vienna, austria",TRUE,16.3663691,48.26096510000001,1262.6554054054054,10.302245247821496,1,2
01215,Unter St.Veit,303,1130,fichtnergasse,5,283/30,717,Kaufvertrag,WII/GBII,NA,NA,NA,NA,FALSCH,FALSCH,FALSCH,FALSCH,NA,"Ein-, Zweifamilienhaus",NA,NA,21.09.1995,1/1,1,1,1910,2821/96,1308111,0,FALSCH,100,FALSCH,NA,NA,FALSCH,NA,NA,"fichtnergasse, 5, vienna, austria",TRUE,16.2873594,48.18409519999999,1824.4225941422594,10.833224226806145,1,1
01513,Untersievering,250,1190,kaasgrabengasse,101,711,2576,Kaufvertrag,WI/GBI,NA,NA,NA,NA,FALSCH,FALSCH,FALSCH,FALSCH,NA,"Ein-, Zweifamilienhaus",2,NA,07.11.1997,NA,1,1,1999,4211/98,1308111,0,FALSCH,30,FALSCH,NA,NA,FALSCH,SWW,70,"kaasgrabengasse, 101, vienna, austria",FALSE,16.3267363,48.2527365,507.8070652173913,8.988136657393433,1,2
01401,Dornbach,954,1170,braungasse,9,1154/3,697,Kaufvertrag,W,I,NA,ogk,NA,FALSCH,FALSCH,FALSCH,FALSCH,NA,"Ein-, Zweifamilienhaus",3,NA,01.12.2005,NA,1,1,NA,6378/2005,1300000,NA,FALSCH,100,FALSCH,NA,NA,FALSCH,NA,NA,"braungasse, 9, vienna, austria",TRUE,16.3053834,48.2251348,1865.1362984218079,10.86506534670948,1,2
01806,Mauer,5716,1230,schillingergasse,4,698/2,1065,Kaufvertrag,W,I,6.5,o,NA,FALSCH,FALSCH,FALSCH,FALSCH,NA,"Ein-, Zweifamilienhaus",2,NA,01.03.2006,NA,1,1,1970,700/06,1300000,NA,FALSCH,100,FALSCH,NA,NA,FALSCH,NA,NA,"schillingergasse, 4, vienna, austria",FALSE,16.2557119,48.1522982,1220.6572769953052,10.253442477464704,1,1
01201,Auhof,2245,1130,stiglitzgasse,8,1608,660,Kaufvertrag,W,I,6.5,o,NA,FALSCH,FALSCH,FALSCH,FALSCH,NA,"Ein-, Zweifamilienhaus",2,J,28.05.2008,NA,1,1,2000,1421/2008,1300000,NA,FALSCH,100,FALSCH,NA,NA,FALSCH,NA,NA,"stiglitzgasse, 8, vienna, austria",TRUE,16.2590643,48.16259780000001,1969.6969696969697,10.943757978332089,1,1
01207,Lainz,1133,1130,kueniglberggasse,53,230/2,471,Kaufvertrag,W,I,NA,o,NA,FALSCH,FALSCH,FALSCH,FALSCH,NA,"Ein-, Zweifamilienhaus",2,J,05.10.2007,NA,1,1,1960,1549/2007,1300000,NA,FALSCH,100,FALSCH,NA,NA,FALSCH,NA,NA,"kueniglberggasse, 53, vienna, austria",FALSE,16.2877954,48.1778718,2760.084925690021,11.43049694296512,1,1
01108,Unterlaa,211,1100,kirsteweg,86,181/5,524,Kaufvertrag,W,I,4.5,g,NA,FALSCH,FALSCH,FALSCH,FALSCH,NA,"Ein-, Zweifamilienhaus",2,J,03.03.2011,NA,1,1,1970,NA,1300000,NA,FALSCH,100,FALSCH,NA,NA,FALSCH,NA,NA,"kirsteweg, 86, vienna, austria",FALSE,16.4178144,48.1317882,2480.916030534351,11.276657191040453,0,NA
01207,Lainz,101,1130,pacassistrasse,61,166/3,1009,Kaufvertrag,W,I,7.5,o,NA,FALSCH,FALSCH,FALSCH,FALSCH,NA,"Ein-, Zweifamilienhaus",NA,J,23.07.2013,NA,1,1,NA,1653/13,1300000,NA,FALSCH,100,FALSCH,NA,NA,FALSCH,NA,NA,"pacassistrasse, 61, vienna, austria",FALSE,16.2859838,48.1768866,1288.404360753221,10.331369733471547,1,1
01401,Dornbach,2383,1160,montigasse,13,954/33,659,Kaufvertrag,W,I,6.5,g,NA,FALSCH,FALSCH,FALSCH,FALSCH,NA,"Ein-, Zweifamilienhaus",2,J,28.08.2013,NA,1,1,1986,4345/2013,1300000,NA,FALSCH,100,FALSCH,NA,NA,FALSCH,NA,NA,"montigasse, 13, vienna, austria",FALSE,16.306719,48.2290037,1972.6858877086495,10.945945537569852,0,NA
01503,Heiligenstadt,1284,1190,schreiberweg,16,670/1,1302,Kaufvertrag,W,I,6.5,o,NA,FALSCH,FALSCH,FALSCH,FALSCH,NA,"Ein-, Zweifamilienhaus",NA,J,18.12.2009,NA,1,1,NA,6978/2009,1300000,998.4639,FALSCH,100,FALSCH,NA,NA,FALSCH,NA,NA,"schreiberweg, 16, vienna, austria",TRUE,16.3487083,48.2576466,998.4639016897081,9.963566459412268,1,2
01209,Ober St.Veit,2048,1130,loefflergasse,34,1019/17,964,Kaufvertrag,W,I,7.5,o gk,NA,FALSCH,FALSCH,FALSCH,FALSCH,NA,"Ein-, Zweifamilienhaus",2,J,31.03.2016,NA,1,1,NA,1155/16,1300000,NA,FALSCH,100,FALSCH,NA,NA,FALSCH,NA,NA,"loefflergasse, 34, vienna, austria",FALSE,16.2666485,48.1760362,1348.5477178423237,10.397190856347942,1,1
01503,Heiligenstadt,1068,1190,dennweg,5,692/1,529,Kaufvertrag,W,I,7.5,o gk,NA,FALSCH,FALSCH,FALSCH,WAHR,NA,"Ein-, Zweifamilienhaus",1,J,23.12.2015,NA,1,1,1960,2298/2016,1300000,NA,FALSCH,100,FALSCH,NA,NA,FALSCH,NA,NA,"dennweg, 5, vienna, austria",TRUE,16.3565692,48.26034569999999,2457.466918714556,11.262956280463879,1,2
01510,Pötzleinsdorf,1496,1180,schoenbrunner graben,14,645/12,814,Kaufvertrag,W,I,7.5,o gk,NA,FALSCH,FALSCH,FALSCH,FALSCH,NA,"Ein-, Zweifamilienhaus",NA,J,27.06.2016,NA,1,1,NA,4290/2016,1300000,NA,FALSCH,25,FALSCH,NA,NA,FALSCH,NA,NA,"schoenbrunner graben, 14, vienna, austria",FALSE,16.3117217,48.23237899999999,1597.0515970515971,10.641195208311657,1,2
01205,Hietzing,390,1130,auhofstrasse,26,188/1,646,Kaufvertrag,WI/GBI,NA,NA,NA,NA,FALSCH,FALSCH,FALSCH,FALSCH,NA,"Ein-, Zweifamilienhaus",NA,NA,09.12.1993,1/1,1,1,0,544/94,1271775,0,FALSCH,100,FALSCH,NA,NA,FALSCH,NA,NA,"auhofstrasse, 26, vienna, austria",TRUE,16.2933836,48.1878162,1968.6919504643963,10.943021668981388,0,NA
01501,Gersthof,903,1180,czartoryskigasse,30,314/10,752,Kaufvertrag,WII/GBII,NA,NA,NA,NA,FALSCH,FALSCH,FALSCH,FALSCH,NA,"Ein-, Zweifamilienhaus",2,NA,17.11.2000,NA,1,1,0,429/00,1271775,0,FALSCH,100,FALSCH,NA,NA,FALSCH,NA,NA,"czartoryskigasse, 30, vienna, austria",FALSE,16.3248093,48.22897039999999,1691.190159574468,10.723823171997676,1,2
01401,Dornbach,839,1170,heubergergasse,13,405/6,1645,Kaufvertrag,WI/GBI,NA,NA,NA,NA,FALSCH,FALSCH,FALSCH,FALSCH,NA,"Ein-, Zweifamilienhaus",2,J,13.06.2001,NA,1,1,0,4486/01,1271775,0,FALSCH,100,FALSCH,NA,NA,FALSCH,NA,NA,"heubergergasse, 13, vienna, austria",FALSE,16.2744391,48.159686,773.1155015197569,9.594540155052709,0,NA
01207,Lainz,309,1130,jagdschlossgasse,4,337/10,2337,Kaufvertrag,W,I,NA,o,NA,FALSCH,FALSCH,FALSCH,FALSCH,NA,"Ein-, Zweifamilienhaus",NA,NA,29.12.2002,NA,1,1,1910,898/03,1271775,NA,FALSCH,100,FALSCH,NA,NA,FALSCH,NA,NA,"jagdschlossgasse, 4, vienna, austria",FALSE,16.2801181,48.1772629,544.191270860077,9.087970004892487,0,NA
01207,Lainz,1047,1130,dovskygasse,8,271/4,446,Kaufvertrag,W,I,7.5,o,NA,FALSCH,FALSCH,FALSCH,FALSCH,NA,"Ein-, Zweifamilienhaus",2,J,25.05.2010,NA,1,1,1975,1772/2010,1270000,NA,FALSCH,100,FALSCH,NA,NA,FALSCH,NA,NA,"dovskygasse, 8, vienna, austria",FALSE,16.291777,48.1746693,2847.5336322869957,11.475497166401311,0,NA
01806,Mauer,3521,1230,rudolf-waisenhorn-gasse,192,1358/3,1020,Kaufvertrag,W,I,6.5,o,NA,FALSCH,FALSCH,FALSCH,FALSCH,NA,"Ein-, Zweifamilienhaus",3,J,10.10.2013,NA,1,1,NA,3217/13,1270000,NA,FALSCH,100,FALSCH,NA,NA,FALSCH,NA,NA,"rudolf-waisenhorn-gasse, 192, vienna, austria",FALSE,16.258126,48.1430558,1245.0980392156862,10.282043629462757,0,NA
01801,Atzgersdorf,1829,1230,dr.-andreas-zailer-gasse,13,489/13,749,Kaufvertrag,W,I,6.5,o,NA,FALSCH,FALSCH,FALSCH,FALSCH,NA,"Ein-, Zweifamilienhaus",2,J,07.02.2008,NA,1,1,2005,724/08,1261040,NA,FALSCH,100,FALSCH,NA,NA,FALSCH,NA,NA,"dr.-andreas-zailer-gasse, 13, vienna, austria",FALSE,16.280944,48.1393555,1683.6315086782377,10.717360699328054,1,1
01804,Kalksburg,32,1190,graefin-zichy-strasse,9,23/53,2976,Kaufvertrag,W,I,7.5,o,NA,FALSCH,FALSCH,FALSCH,FALSCH,NA,"Ein-, Zweifamilienhaus",NA,J,15.05.2003,NA,1,1,1920,1649/03,1250000,NA,FALSCH,100,FALSCH,NA,NA,FALSCH,NA,NA,"graefin-zichy-strasse, 9, vienna, austria",FALSE,16.2485663,48.1357839,420.0268817204301,8.714337853103505,0,NA
01806,Mauer,1461,1230,wittgensteinstrasse,9,1082/4,861,Kaufvertrag,W,I,6.5,o,NA,FALSCH,FALSCH,FALSCH,FALSCH,NA,"Ein-, Zweifamilienhaus",3,J,14.10.2010,NA,1,1,2000,2765/2010,1250000,NA,FALSCH,100,FALSCH,NA,NA,FALSCH,NA,NA,"wittgensteinstrasse, 9, vienna, austria",TRUE,16.2715687,48.156113,1451.8002322880373,10.503627236814692,1,1
01507,Nußdorf,195,1190,zahnradbahnstrasse,20,305/2,580,Kaufvertrag,W,I,7.5,o,NA,FALSCH,FALSCH,FALSCH,FALSCH,NA,"Ein-, Zweifamilienhaus",3,J,04.07.2012,NA,1,1,NA,22006/2012,1250000,NA,FALSCH,100,FALSCH,NA,NA,FALSCH,NA,NA,"zahnradbahnstrasse, 20, vienna, austria",FALSE,16.3582534,48.2595827,2155.1724137931033,11.073587574196601,1,2
01806,Mauer,290,1230,rielgasse,4,658/1,991,Kaufvertrag,W,I,6.5,o,NA,FALSCH,FALSCH,FALSCH,FALSCH,NA,"Ein-, Zweifamilienhaus",NA,J,16.06.2014,NA,1,3,NA,2242/14,1250000,NA,FALSCH,100,FALSCH,NA,NA,FALSCH,NA,NA,"rielgasse, 4, vienna, austria",FALSE,16.2597399,48.150371,420.45072317524387,8.715792916303892,1,1
01206,Hütteldorf,2814,1140,gamandergasse,16,1337/1,562,Kaufvertrag,W,I,7.5,o gk,NA,FALSCH,FALSCH,FALSCH,FALSCH,NA,"Ein-, Zweifamilienhaus",NA,J,07.10.2015,NA,1,1,NA,5633/15,1250000,NA,FALSCH,100,FALSCH,NA,NA,FALSCH,NA,NA,"gamandergasse, 16, vienna, austria",TRUE,16.2555415,48.2185538,2224.1992882562276,11.119070343990611,1,1
01209,Ober St.Veit,1223,1130,muenichreiterstrasse,9,1268/4,933,Kaufvertrag,W,II,10.5,gk,Schutzzone,FALSCH,FALSCH,FALSCH,FALSCH,NA,"Ein-, Zweifamilienhaus",3,J,15.10.2015,NA,1,1,NA,2942/15,1250000,NA,FALSCH,100,FALSCH,NA,NA,FALSCH,NA,NA,"muenichreiterstrasse, 9, vienna, austria",TRUE,16.2836811,48.18103070000001,1339.7642015005358,10.387763393359778,1,1
01514,Währing,2247,1180,colloredogasse,12,1271,1270,Kaufvertrag,WII/GBII,NA,NA,NA,NA,WAHR,FALSCH,FALSCH,FALSCH,NA,"Ein-, Zweifamilienhaus",NA,NA,09.10.1990,1/1,1,1,1910,93/91,1235438,0,FALSCH,100,FALSCH,NA,NA,FALSCH,NA,NA,"colloredogasse, 12, vienna, austria",TRUE,16.3448767,48.2323084,972.7858267716535,9.925978399029901,1,2
01503,Heiligenstadt,1041,1190,springsiedelgasse,18,89/3,762,Kaufvertrag,WI/GBI,NA,NA,NA,NA,FALSCH,FALSCH,FALSCH,FALSCH,NA,"Ein-, Zweifamilienhaus",NA,NA,29.07.1994,1/1,1,1,1965,4815/94,1235438,0,FALSCH,100,FALSCH,NA,NA,FALSCH,NA,NA,"springsiedelgasse, 18, vienna, austria",TRUE,16.3540895,48.2552266,1621.3097112860892,10.662943993196107,1,2
01209,Ober St.Veit,3411,1130,glasauergasse,20,233,517,Kaufvertrag,WI/GBI,NA,NA,NA,NA,WAHR,WAHR,FALSCH,FALSCH,NA,"Ein-, Zweifamilienhaus",NA,NA,18.07.1994,1/1,1,1,0,8067/94,1235438,0,FALSCH,100,FALSCH,NA,NA,FALSCH,NA,NA,"glasauergasse, 20, vienna, austria",TRUE,16.2684966,48.18936249999999,2389.6286266924567,11.222570710374494,1,1
01509,Obersievering,82,1190,bellevuestrasse,69,168/1,2485,Kaufvertrag,WI/GBI,NA,NA,NA,NA,FALSCH,FALSCH,FALSCH,FALSCH,NA,"Ein-, Zweifamilienhaus",2,NA,22.12.1998,NA,1,1,0,2513/99,1235438,0,FALSCH,50,FALSCH,NA,NA,FALSCH,SWW,50,"bellevuestrasse, 69, vienna, austria",FALSE,16.3224303,48.2548586,497.15814889336013,8.95756104423978,1,2
01806,Mauer,1120,1230,schwarzwaldgasse,6,1517/1,1460,Kaufvertrag,W,I,6.5,gk,NA,FALSCH,FALSCH,FALSCH,FALSCH,NA,"Ein-, Zweifamilienhaus",2,J,04.04.2011,NA,1,1,1950,1930/2011,1230000,NA,FALSCH,100,FALSCH,NA,NA,FALSCH,NA,NA,"schwarzwaldgasse, 6, vienna, austria",FALSE,16.2690112,48.1444838,842.4657534246576,9.71847423112131,1,1
01513,Untersievering,419,1190,sieveringer strasse,29,594/1,2030,Kaufvertrag,W,II,10.5,g,BB,FALSCH,FALSCH,FALSCH,FALSCH,NA,"Ein-, Zweifamilienhaus",2,J,12.12.2012,NA,1,1,NA,474/2013,1230000,NA,FALSCH,100,FALSCH,NA,NA,FALSCH,NA,NA,"sieveringer strasse, 29, vienna, austria",TRUE,16.3382069,48.2461148,605.9113300492611,9.24296287281615,0,NA
01209,Ober St.Veit,1493,1130,muenichreiterstrasse,22,1293/35,665,Kaufvertrag,W,I,NA,o,Schutzzone,FALSCH,FALSCH,FALSCH,FALSCH,NA,"Ein-, Zweifamilienhaus",2,J,31.07.2014,NA,1,1,NA,2514/14,1225000,NA,FALSCH,100,FALSCH,NA,NA,FALSCH,NA,NA,"muenichreiterstrasse, 22, vienna, austria",FALSE,16.2843395,48.1832268,1842.1052631578948,10.847139788163467,1,1
01207,Lainz,1070,1130,kueniglberggasse,7,268/1,556,Kaufvertrag,W,I,7.5,o,NA,FALSCH,FALSCH,FALSCH,FALSCH,NA,"Ein-, Zweifamilienhaus",NA,J,16.10.2014,NA,1,1,NA,3333/14,1223000,NA,FALSCH,100,FALSCH,NA,NA,FALSCH,NA,NA,"kueniglberggasse, 7, vienna, austria",FALSE,16.2911738,48.17527,2199.640287769784,11.103051900465966,1,1
01405,Ottakring,2188,1160,gallitzinstrasse,97,345/6,1815,Kaufvertrag,WI/GBI,NA,NA,NA,NA,FALSCH,FALSCH,FALSCH,FALSCH,NA,"Ein-, Zweifamilienhaus",2,NA,29.10.2004,NA,1,1,1900,5778/2004,1220000,NA,FALSCH,100,FALSCH,NA,NA,FALSCH,NA,NA,"gallitzinstrasse, 97, vienna, austria",FALSE,16.2820668,48.2165451,672.1763085399449,9.392695884229223,1,2
01215,Unter St.Veit,350,1130,fichtnergasse,20,308/31,863,Kaufvertrag,WII/GBII,NA,NA,NA,NA,FALSCH,FALSCH,FALSCH,FALSCH,NA,"Ein-, Zweifamilienhaus",2,NA,14.03.2002,NA,1,1,1900,1487/02,1218000,0,FALSCH,100,FALSCH,NA,NA,FALSCH,NA,NA,"fichtnergasse, 20, vienna, austria",FALSE,16.2889038,48.1862371,1411.3557358053301,10.462865953389464,1,1
01511,Salmannsdorf,267,1190,keylwerthgasse,14,119/1,957,Kaufvertrag,W,I,7.5,ogk,NA,FALSCH,FALSCH,FALSCH,FALSCH,NA,"Ein-, Zweifamilienhaus",2,NA,13.12.2007,NA,1,1,NA,634/08,1210000,NA,FALSCH,100,FALSCH,NA,NA,FALSCH,NA,NA,"keylwerthgasse, 14, vienna, austria",FALSE,16.2890691,48.2524198,1264.367816091954,10.304200502338018,1,2
01510,Pötzleinsdorf,652,1180,naaffgasse,8,642/102,552,Kaufvertrag,W,II,10.5,o gk,NA,FALSCH,FALSCH,FALSCH,FALSCH,NA,"Ein-, Zweifamilienhaus",3,J,30.01.2015,NA,1,1,1920,1422/2015,1206000,NA,FALSCH,100,FALSCH,NA,NA,FALSCH,NA,NA,"naaffgasse, 8, vienna, austria",FALSE,16.3134821,48.232942799999996,2184.782608695652,11.093274019784003,0,NA
01209,Ober St.Veit,691,1130,seifertstrasse,3,864/6,795,Kaufvertrag,W,I,6.5,gr,NA,FALSCH,FALSCH,FALSCH,FALSCH,NA,"Ein-, Zweifamilienhaus",1,J,22.12.2015,NA,1,1,NA,196/16,1203000,NA,FALSCH,100,FALSCH,NA,NA,FALSCH,NA,NA,"seifertstrasse, 3, vienna, austria",FALSE,16.2636693,48.182029,1513.2075471698113,10.563394161666446,1,1
01669,Kaisermühlen,233,1220,eiswerkstrasse,18,2482/66,1115,Kaufvertrag,W,I,7.5,o gk,NA,FALSCH,FALSCH,FALSCH,FALSCH,NA,"Ein-, Zweifamilienhaus",NA,N,22.09.2005,NA,1,1,NA,5064/05,1200000,NA,FALSCH,100,FALSCH,NA,NA,FALSCH,NA,NA,"eiswerkstrasse, 18, vienna, austria",FALSE,16.4247479,48.2340779,1076.2331838565021,10.0717749803503,1,4
01207,Lainz,608,1130,versbachgasse,2,279/31,1534,Kaufvertrag,W,I,6.5,o,NA,FALSCH,FALSCH,FALSCH,FALSCH,NA,"Ein-, Zweifamilienhaus",2,NA,11.09.2006,NA,1,1,1980,2311/06,1200000,NA,FALSCH,100,FALSCH,NA,NA,FALSCH,NA,NA,"versbachgasse, 2, vienna, austria",FALSE,16.2952246,48.1744302,782.2685788787484,9.611520207655035,1,1
01215,Unter St.Veit,381,1130,hietzinger hauptstrasse,49,308/53,1037,Kaufvertrag,W,I,7.5,o,NA,FALSCH,FALSCH,FALSCH,FALSCH,NA,"Ein-, Zweifamilienhaus",NA,J,27.05.2003,NA,1,1,1883,1275/03,1200000,NA,FALSCH,100,FALSCH,NA,NA,FALSCH,NA,NA,"hietzinger hauptstrasse, 49, vienna, austria",FALSE,16.2901485,48.1869159,1157.1841851494696,10.176402796344743,0,NA
01806,Mauer,102,1230,maurer lange gasse,3,89/1,1446,Kaufvertrag,W,I,6.5,g,NA,FALSCH,FALSCH,FALSCH,FALSCH,NA,"Ein-, Zweifamilienhaus",2,J,13.11.2007,NA,1,1,1880,3292/2007,1200000,NA,FALSCH,100,FALSCH,NA,NA,FALSCH,NA,NA,"maurer lange gasse, 3, vienna, austria",FALSE,16.2766518,48.1481771,829.8755186721992,9.69675113820685,1,1
01502,Grinzing,518,1190,cobenzlgasse,134,914/1,1431,Kaufvertrag,W,I,6.5,o,NA,FALSCH,FALSCH,FALSCH,FALSCH,NA,"Ein-, Zweifamilienhaus",2,NA,23.07.2009,NA,1,1,1864,4304/2009,1200000,NA,FALSCH,100,FALSCH,NA,NA,FALSCH,NA,NA,"cobenzlgasse, 134, vienna, austria",FALSE,16.3279989,48.26582,838.5744234800839,9.7117950184313,1,2
01506,Neustift am Walde,37,1190,neustift am walde,50,18/1,915,Kaufvertrag,W,I,7.5,o gk,NA,FALSCH,FALSCH,FALSCH,FALSCH,NA,"Ein-, Zweifamilienhaus",2,J,19.06.2009,NA,1,1,NA,4307/2010,1200000,NA,FALSCH,100,FALSCH,NA,NA,FALSCH,NA,NA,"neustift am walde, 50, vienna, austria",FALSE,16.3047598,48.2499986,1311.4754098360656,10.356975041986564,1,2
01806,Mauer,4741,1230,oelzeltgasse,13,347/1,1458,Kaufvertrag,W,I,6.5,o,NA,FALSCH,FALSCH,FALSCH,FALSCH,NA,"Ein-, Zweifamilienhaus",NA,J,17.03.2014,NA,1,1,NA,2430/14,1200000,NA,FALSCH,100,FALSCH,NA,NA,FALSCH,NA,NA,"oelzeltgasse, 13, vienna, austria",FALSE,16.2660262,48.1487703,823.0452674897119,9.68482797083103,1,1
01510,Pötzleinsdorf,1047,1180,duerwaringstrasse,76,647/11,511,Kaufvertrag,W,I,6,gr,NA,FALSCH,FALSCH,FALSCH,FALSCH,NA,"Ein-, Zweifamilienhaus",2,J,27.01.2014,NA,1,1,1926,1764/2014,1200000,NA,FALSCH,100,FALSCH,NA,NA,FALSCH,NA,NA,"duerwaringstrasse, 76, vienna, austria",TRUE,16.3106875,48.2333436,2348.3365949119375,11.197423494220347,1,2
01510,Pötzleinsdorf,1612,1180,schoenbrunner graben,94,624/11,586,Kaufvertrag,W,I,6.5,o gk,NA,FALSCH,FALSCH,FALSCH,FALSCH,NA,"Ein-, Zweifamilienhaus",2,J,01.09.2015,NA,1,1,1965,5481/2015,1200000,NA,FALSCH,100,FALSCH,NA,NA,FALSCH,NA,NA,"schoenbrunner graben, 94, vienna, austria",FALSE,16.3037501,48.234839,2047.7815699658704,10.99984612073572,1,2
01207,Lainz,676,1130,melchartgasse,16,274/64,412,Kaufvertrag,W,I,7.5,gk,Schutzzone,FALSCH,FALSCH,FALSCH,FALSCH,NA,"Ein-, Zweifamilienhaus",NA,J,14.10.2016,NA,1,1,NA,2925/16,1200000,NA,FALSCH,100,FALSCH,NA,NA,FALSCH,NA,NA,"melchartgasse, 16, vienna, austria",FALSE,16.2940345,48.1730718,2912.621359223301,11.50810244797475,0,NA
01510,Pötzleinsdorf,449,1180,hockegasse,100,554/203,1198,Kaufvertrag,WII/GBII,NA,NA,NA,NA,FALSCH,FALSCH,FALSCH,FALSCH,NA,"Ein-, Zweifamilienhaus",NA,NA,21.12.1992,1/1,1,1,1905,3362/93,1199102,0,FALSCH,100,FALSCH,NA,NA,FALSCH,NA,NA,"hockegasse, 100, vienna, austria",TRUE,16.3085598,48.2399298,1000.9198664440735,9.967110761421992,1,2
01215,Unter St.Veit,442,1130,larochegasse,23,280/39,962,Kaufvertrag,WII/GBII,NA,NA,NA,NA,FALSCH,FALSCH,FALSCH,FALSCH,NA,"Ein-, Zweifamilienhaus",NA,NA,17.03.1997,1/1,1,1,0,2511/97,1199102,0,FALSCH,100,FALSCH,NA,NA,FALSCH,NA,NA,"larochegasse, 23, vienna, austria",FALSE,16.2862275,48.1848679,1246.4677754677755,10.283629870440736,1,1
01502,Grinzing,906,1190,schreiberweg,35,599/3,1497,Kaufvertrag,WI/GBI,NA,NA,NA,NA,FALSCH,FALSCH,FALSCH,FALSCH,NA,"Ein-, Zweifamilienhaus",2,NA,20.07.2001,NA,1,1,0,4238/01,1199102,0,FALSCH,100,FALSCH,NA,NA,FALSCH,NA,NA,"schreiberweg, 35, vienna, austria",FALSE,16.3457552,48.2575083,801.00334001336,9.645664448152361,1,2
01209,Ober St.Veit,1237,1130,stadlergasse,11,1269/5,1027,Kaufvertrag,WII/GBII,NA,NA,NA,NA,FALSCH,FALSCH,FALSCH,FALSCH,NA,"Ein-, Zweifamilienhaus",NA,N,15.06.1997,1/1,1,1,1908,3270/97,1195468,0,FALSCH,100,FALSCH,NA,NA,FALSCH,NA,NA,"stadlergasse, 11, vienna, austria",FALSE,16.283446,48.1823451,1164.0389483933789,10.184923615858375,1,1
01405,Ottakring,4153,1160,hertlgasse,6,346/8,850,Kaufvertrag,W,I,7.5,o,NA,FALSCH,FALSCH,FALSCH,FALSCH,NA,"Ein-, Zweifamilienhaus",3,J,27.08.2013,NA,1,1,1998,5069/2013,1190000,NA,FALSCH,100,FALSCH,NA,NA,FALSCH,NA,NA,"hertlgasse, 6, vienna, austria",TRUE,16.3662593,48.2091482,1400,10.451211111832329,1,5
01209,Ober St.Veit,1034,1130,geylinggasse,13,1244/44,1245,Kaufvertrag,W,II,10.5,o,NA,FALSCH,FALSCH,FALSCH,FALSCH,NA,"Ein-, Zweifamilienhaus",2,J,30.01.2008,NA,1,1,1900,833/2008,1188000,NA,FALSCH,100,FALSCH,NA,NA,FALSCH,NA,NA,"geylinggasse, 13, vienna, austria",FALSE,16.2747693,48.188233,954.2168674698795,9.89817337850741,1,1
01502,Grinzing,317,1190,grinzinger strasse,12,561/1,1344,Kaufvertrag,WI/GBI,NA,NA,NA,NA,WAHR,WAHR,FALSCH,FALSCH,NA,"Ein-, Zweifamilienhaus",NA,NA,10.05.1994,1/1,1,1,1900,3297/94,1180934,0,FALSCH,50,FALSCH,NA,NA,FALSCH,SWW,50,"grinzinger strasse, 12, vienna, austria",TRUE,16.3469843,48.2537787,878.671130952381,9.779179484241181,0,NA
01510,Pötzleinsdorf,150,1180,poetzleinsdorfer str.,37,554/12,1001,Kaufvertrag,WII/GBII,NA,NA,NA,NA,FALSCH,FALSCH,FALSCH,FALSCH,NA,"Ein-, Zweifamilienhaus",NA,NA,28.05.1991,1/1,1,1,1900,2712/91,1177300,0,FALSCH,100,FALSCH,NA,NA,FALSCH,NA,NA,"poetzleinsdorfer str., 37, vienna, austria",TRUE,16.3136259,48.2398691,1176.123876123876,10.199824305769697,1,2
01502,Grinzing,1026,1190,grinzinger steig,19,656/6,750,Kaufvertrag,WI/GBI,NA,NA,NA,NA,FALSCH,FALSCH,FALSCH,FALSCH,NA,"Ein-, Zweifamilienhaus",NA,NA,25.03.1994,1/1,1,1,1965,2046/94,1177300,0,FALSCH,100,FALSCH,NA,NA,FALSCH,NA,NA,"grinzinger steig, 19, vienna, austria",TRUE,16.3444753,48.2589981,1569.7333333333333,10.616303779222449,1,2
01503,Heiligenstadt,947,1190,hansi-niese-gasse,15,735/9,589,Kaufvertrag,W,I,7.5,o,NA,FALSCH,FALSCH,FALSCH,FALSCH,NA,"Ein-, Zweifamilienhaus",2,J,18.09.2009,NA,1,1,NA,5265/2009,1175000,NA,FALSCH,100,FALSCH,NA,NA,FALSCH,NA,NA,"hansi-niese-gasse, 15, vienna, austria",FALSE,16.3522127,48.2602652,1994.9066213921901,10.962105502283988,1,2
01508,Oberdöbling,1848,1190,cottagegasse,59,866/30,949,Kaufvertrag,WII/GBII,NA,NA,NA,NA,WAHR,FALSCH,FALSCH,WAHR,seit 14.2.1991,"Ein-, Zweifamilienhaus",NA,NA,01.10.1992,1/1,1,1,1930,4942/92,1162765,0,FALSCH,100,FALSCH,NA,NA,FALSCH,NA,NA,"cottagegasse, 59, vienna, austria",TRUE,16.3428977,48.236467,1225.2528977871443,10.258863843462969,1,2
01808,Siebenhirten,344,1230,dr.-hanswenzel-gasse,11,.262,418,Kaufvertrag,GB,I,7.5,g,NA,FALSCH,FALSCH,FALSCH,FALSCH,NA,"Ein-, Zweifamilienhaus",3,J,27.10.2010,NA,1,1,1950,485/2011,1152000,NA,FALSCH,60,FALSCH,NA,NA,FALSCH,"GB I 5,5",40,"dr.-hanswenzel-gasse, 11, vienna, austria",FALSE,16.3086475,48.1287996,2755.9808612440193,11.428350154023518,1,1
01201,Auhof,2298,1130,kardinal-piffl-gasse,31,1554,899,Kaufvertrag,W,I,6.5,o,NA,FALSCH,FALSCH,FALSCH,FALSCH,NA,"Ein-, Zweifamilienhaus",2,J,08.10.2010,NA,1,1,1960,2862/2010,1150000,NA,FALSCH,100,FALSCH,NA,NA,FALSCH,NA,NA,"kardinal-piffl-gasse, 31, vienna, austria",FALSE,16.2570371,48.1640384,1279.1991101223582,10.321025124979377,0,NA
01201,Auhof,1649,1130,felixgasse,81,2003,884,Kaufvertrag,W,I,6.5,o,NA,FALSCH,FALSCH,FALSCH,FALSCH,NA,"Ein-, Zweifamilienhaus",2,J,13.12.2010,NA,1,1,1960,3346/2010,1150000,NA,FALSCH,100,FALSCH,NA,NA,FALSCH,NA,NA,"felixgasse, 81, vienna, austria",FALSE,16.2615905,48.1613986,1300.9049773755655,10.345299871102393,1,1
01209,Ober St.Veit,2481,1130,lafitegasse,11,1019/39,770,Kaufvertrag,W,I,7.5,o gk,BB,FALSCH,FALSCH,FALSCH,FALSCH,NA,"Ein-, Zweifamilienhaus",2,J,26.07.2012,NA,1,1,NA,21220/2012,1150000,NA,FALSCH,100,FALSCH,NA,NA,FALSCH,NA,NA,"lafitegasse, 11, vienna, austria",FALSE,16.2679066,48.1760198,1493.5064935064936,10.54448779491156,1,1
01215,Unter St.Veit,265,1130,st.-veit-gasse,35,193/1,418,Kaufvertrag,W,II,10.5,g,NA,FALSCH,FALSCH,FALSCH,FALSCH,NA,"Ein-, Zweifamilienhaus",3,J,03.10.2014,NA,1,1,NA,86/15,1150000,NA,FALSCH,100,FALSCH,NA,NA,FALSCH,NA,NA,"st.-veit-gasse, 35, vienna, austria",FALSE,16.2848582,48.1877735,2751.196172248804,11.425843298412943,1,1
01501,Gersthof,674,1180,scheidlstrasse,12,172/17,743,Kaufvertrag,W,II,10.5,g,NA,FALSCH,FALSCH,FALSCH,FALSCH,NA,"Ein-, Zweifamilienhaus",2,J,08.06.2015,NA,1,1,1960,3461/2015,1150000,NA,FALSCH,100,FALSCH,NA,NA,FALSCH,NA,NA,"scheidlstrasse, 12, vienna, austria",FALSE,16.327454,48.2292875,1547.779273216689,10.595984029955229,1,2
01401,Dornbach,818,1170,buchfinkweg,6,587/1,2138,Kaufvertrag,WI/GBI,NA,NA,NA,NA,FALSCH,FALSCH,FALSCH,FALSCH,NA,"Ein-, Zweifamilienhaus",1,NA,05.07.2000,NA,1,1,0,3704/00,1148231,0,FALSCH,100,FALSCH,NA,NA,FALSCH,NA,NA,"buchfinkweg, 6, vienna, austria",FALSE,16.2894293,48.2298596,537.0584658559401,9.068935342806725,0,NA
01215,Unter St.Veit,445,1130,muenichreiterstrasse,34,274/7,875,Kaufvertrag,WII/GBII,NA,NA,NA,NA,FALSCH,FALSCH,FALSCH,FALSCH,NA,"Ein-, Zweifamilienhaus",NA,NA,01.07.1992,1/1,1,1,0,6878/92,1140964,0,FALSCH,100,FALSCH,NA,NA,FALSCH,NA,NA,"muenichreiterstrasse, 34, vienna, austria",TRUE,16.2850854,48.18451899999999,1303.9588571428571,10.348682634651034,1,1
01209,Ober St.Veit,1822,1130,himmelhofgasse,15,510,1508,Kaufvertrag,WI/GBI,NA,NA,NA,NA,FALSCH,FALSCH,FALSCH,FALSCH,NA,"Ein-, Zweifamilienhaus",NA,NA,14.06.1994,1/1,1,1,1979,NA,1133696,0,FALSCH,100,FALSCH,NA,NA,FALSCH,NA,NA,"himmelhofgasse, 15, vienna, austria",TRUE,16.2596288,48.1897842,751.787798408488,9.554181690260183,1,1
01503,Heiligenstadt,605,1190,hohe warte,44,341/10,1557,Kaufvertrag,WII/GBII,NA,NA,NA,NA,FALSCH,FALSCH,FALSCH,FALSCH,NA,"Ein-, Zweifamilienhaus",NA,NA,28.04.1987,1/1,1,1,1920,4740/92,1126429,0,FALSCH,100,FALSCH,NA,NA,FALSCH,NA,NA,"hohe warte, 44, vienna, austria",TRUE,16.3555504,48.2493165,723.461143224149,9.498771722104308,1,2
01503,Heiligenstadt,1254,1190,frimmelgasse,27,708/1,461,Kaufvertrag,WI/GBI,NA,NA,NA,NA,FALSCH,FALSCH,FALSCH,FALSCH,NA,"Ein-, Zweifamilienhaus",2,NA,26.06.1998,NA,1,1,1999,3797/98,1126429,0,FALSCH,100,FALSCH,NA,NA,FALSCH,NA,NA,"frimmelgasse, 27, vienna, austria",FALSE,16.3546648,48.2593982,2443.4468546637745,11.254702010754007,0,NA
01510,Pötzleinsdorf,523,1180,raffelspergergasse,28,377/7,526,Kaufvertrag,W,I,7.5,o gk,NA,FALSCH,FALSCH,FALSCH,FALSCH,NA,"Ein-, Zweifamilienhaus",2,J,27.09.2010,NA,1,1,NA,2287/2011,1125000,NA,FALSCH,100,FALSCH,NA,NA,FALSCH,NA,NA,"raffelspergergasse, 28, vienna, austria",FALSE,16.3156338,48.24499369999999,2138.783269961977,11.062574581474184,1,2
01806,Mauer,1593,1230,wittgensteinstrasse,67,1035/2,1770,Kaufvertrag,W,I,6.5,g,NA,FALSCH,FALSCH,FALSCH,FALSCH,NA,"Ein-, Zweifamilienhaus",2,J,16.10.2008,NA,1,1,1950,3130/2008,1105050,NA,FALSCH,100,FALSCH,NA,NA,FALSCH,NA,NA,"wittgensteinstrasse, 67, vienna, austria",FALSE,16.2665767,48.1581011,624.3220338983051,9.286146572812228,1,1
01205,Hietzing,413,1130,gloriettegasse,22,380/3,1031,Kaufvertrag,WI/GBI,NA,NA,NA,NA,WAHR,FALSCH,FALSCH,FALSCH,NA,"Ein-, Zweifamilienhaus",NA,NA,13.07.1995,1/1,1,1,1898,7539/95,1104627,0,FALSCH,100,FALSCH,NA,NA,FALSCH,NA,NA,"gloriettegasse, 22, vienna, austria",TRUE,16.2928283,48.1828051,1071.4131910766246,10.06529924818404,1,1
01209,Ober St.Veit,338,1130,firmiangasse,39,411/1,1889,Kaufvertrag,W,I,7.5,g,NA,FALSCH,FALSCH,FALSCH,FALSCH,NA,"Ein-, Zweifamilienhaus",2,J,26.05.2008,NA,1,1,1900,1475/2008,1100000,NA,FALSCH,100,FALSCH,NA,NA,FALSCH,NA,NA,"firmiangasse, 39, vienna, austria",FALSE,16.2679514,48.19074579999999,582.3186871360508,9.18566510668574,1,1
01209,Ober St.Veit,2364,1130,ghelengasse,12,760/11,2281,Kaufvertrag,W,1,6.5,o,NA,FALSCH,FALSCH,FALSCH,FALSCH,NA,"Ein-, Zweifamilienhaus",2,J,07.08.2003,NA,1,1,1960,2933/2003,1100000,NA,FALSCH,100,FALSCH,NA,NA,FALSCH,NA,NA,"ghelengasse, 12, vienna, austria",FALSE,16.259415,48.1816195,482.24462954844364,8.913621361761972,1,1
01209,Ober St.Veit,1422,1230,ghelengasse,4,712/13,2842,Kaufvertrag,W,I,7.5,o,NA,FALSCH,FALSCH,FALSCH,FALSCH,NA,"Ein-, Zweifamilienhaus",4,J,25.01.2006,NA,1,1,1906,330/2006,1100000,NA,FALSCH,100,FALSCH,NA,NA,FALSCH,NA,NA,"ghelengasse, 4, vienna, austria",FALSE,16.2630759,48.183284,387.05137227304715,8.596381253831328,1,1
01401,Dornbach,356,1170,promenadegasse,1,295/3,1663,Kaufvertrag,W,I,NA,o,NA,FALSCH,FALSCH,FALSCH,FALSCH,NA,"Ein-, Zweifamilienhaus",3,J,03.01.2011,NA,1,1,NA,794/2011,1100000,NA,FALSCH,100,FALSCH,NA,NA,FALSCH,NA,NA,"promenadegasse, 1, vienna, austria",FALSE,16.2947085,48.2291998,661.4552014431749,9.36949963978684,1,2
01510,Pötzleinsdorf,1363,1180,naaffgasse,60,632/18,689,Kaufvertrag,W,I,7.5,o gk,NA,FALSCH,FALSCH,FALSCH,FALSCH,NA,"Ein-, Zweifamilienhaus",2,J,15.02.2011,NA,1,1,NA,841/2011,1100000,NA,FALSCH,100,FALSCH,NA,NA,FALSCH,NA,NA,"naaffgasse, 60, vienna, austria",FALSE,16.3091683,48.2348915,1596.5166908563135,10.640711920369817,1,2
01502,Grinzing,1374,1190,huschkagasse,9,573/6,802,Kaufvertrag,W,I,7.5,o,NA,FALSCH,FALSCH,FALSCH,FALSCH,NA,"Ein-, Zweifamilienhaus",2,J,25.05.2010,NA,1,1,NA,3255/2010,1100000,NA,FALSCH,100,FALSCH,NA,NA,FALSCH,NA,NA,"huschkagasse, 9, vienna, austria",FALSE,16.3452977,48.2522789,1371.571072319202,10.421613666619189,1,2
01201,Auhof,1827,1130,jaunerstrasse,6,1959,605,Kaufvertrag,W,I,6.5,o gk,NA,FALSCH,FALSCH,FALSCH,FALSCH,NA,"Ein-, Zweifamilienhaus",NA,J,28.10.2013,NA,1,1,NA,2673/13,1100000,NA,FALSCH,100,FALSCH,NA,NA,FALSCH,NA,NA,"jaunerstrasse, 6, vienna, austria",TRUE,16.2680399,48.1616991,1818.1818181818182,10.828280760912152,1,1
01510,Pötzleinsdorf,1155,1180,bastiengasse,64,634/48,504,Kaufvertrag,W,I,7.5,gk,NA,FALSCH,FALSCH,FALSCH,FALSCH,NA,"Ein-, Zweifamilienhaus",2,J,16.12.2013,NA,1,1,1970,82/2014,1100000,NA,FALSCH,100,FALSCH,NA,NA,FALSCH,NA,NA,"bastiengasse, 64, vienna, austria",FALSE,16.3127827,48.2352503,2182.5396825396824,11.091792169574193,1,2
01651,Aspern,133,1220,aspernstrasse,134,508/1,1634,Kaufvertrag,W,I,7.5,g,70%,FALSCH,FALSCH,FALSCH,FALSCH,NA,"Ein-, Zweifamilienhaus",1,N,12.05.2015,NA,1,1,1895,3480/15,1100000,NA,FALSCH,100,FALSCH,NA,NA,FALSCH,NA,NA,"aspernstrasse, 134, vienna, austria",FALSE,16.4827611,48.2187135,673.1946144430844,9.394879824928426,0,NA
01401,Dornbach,1084,1170,braungasse,40,1177/5,779,Kaufvertrag,W,I,7.5,o,Schutzzone,FALSCH,FALSCH,FALSCH,FALSCH,NA,"Ein-, Zweifamilienhaus",3,J,28.09.2015,NA,1,1,1960,5226/2015,1100000,1412.067,FALSCH,100,FALSCH,NA,NA,FALSCH,NA,NA,"braungasse, 40, vienna, austria",TRUE,16.3011361,48.2266391,1412.0667522464698,10.46359257501244,1,2
01806,Mauer,3693,1230,anton-krieger-gasse,179,1350/2,1050,Kaufvertrag,W,I,6.5,o,NA,FALSCH,FALSCH,FALSCH,FALSCH,NA,"Ein-, Zweifamilienhaus",1,J,18.12.2015,NA,1,1,NA,328/16,1100000,NA,FALSCH,100,FALSCH,NA,NA,FALSCH,NA,NA,"anton-krieger-gasse, 179, vienna, austria",FALSE,16.2570682,48.1449856,1047.6190476190477,10.032898480520624,1,1
01204,Hadersdorf,860,1140,knoedelhuettenstrasse,35,181/3,992,Kaufvertrag,W,I,6.5,o gk,NA,FALSCH,FALSCH,FALSCH,FALSCH,NA,"Ein-, Zweifamilienhaus",3,J,29.06.2016,NA,1,1,NA,3939/16,1100000,NA,FALSCH,100,FALSCH,NA,NA,FALSCH,NA,NA,"knoedelhuettenstrasse, 35, vienna, austria",FALSE,16.2424364,48.2184398,1108.8709677419354,10.114875782687234,1,1
01405,Ottakring,298,1160,kallinagasse,2,74/1,2870,Kaufvertrag,WI/GBI,NA,NA,NA,NA,FALSCH,FALSCH,FALSCH,FALSCH,NA,"Ein-, Zweifamilienhaus",1,NA,01.08.1991,1/1,1,1,0,3411/91,1099976,0,FALSCH,100,FALSCH,NA,NA,FALSCH,NA,NA,"kallinagasse, 2, vienna, austria",TRUE,16.2889889,48.20776009999999,383.26689895470383,8.582205594184959,1,2
01215,Unter St.Veit,309,1130,larochegasse,13,283/57,723,Kaufvertrag,WII/GBII,NA,NA,NA,NA,FALSCH,FALSCH,FALSCH,FALSCH,NA,"Ein-, Zweifamilienhaus",NA,NA,06.09.1995,1/1,1,1,0,6716/95,1096633,0,FALSCH,100,FALSCH,NA,NA,FALSCH,NA,NA,"larochegasse, 13, vienna, austria",TRUE,16.2886757,48.1842201,1516.7814661134164,10.566797525510353,1,1
01514,Währing,2458,1180,peter-jordan-strasse,135,697/14,1338,Kaufvertrag,WII/GBII,NA,NA,NA,NA,FALSCH,FALSCH,FALSCH,WAHR,seit 9.11.1989,"Ein-, Zweifamilienhaus",NA,NA,02.07.1990,1/1,1,1,1971,5813/90,1090093,0,FALSCH,100,FALSCH,NA,NA,FALSCH,NA,NA,"peter-jordan-strasse, 135, vienna, austria",TRUE,16.3241508,48.2389865,814.7182361733932,9.670157390763205,1,2
01502,Grinzing,288,1190,grinzinger strasse,14,559/1,2418,Kaufvertrag,WI/GBI,NA,NA,NA,NA,FALSCH,FALSCH,FALSCH,FALSCH,NA,"Ein-, Zweifamilienhaus",NA,NA,22.03.1991,1/1,1,1,0,2590/91,1090093,0,FALSCH,30,FALSCH,NA,NA,FALSCH,SWW,70,"grinzinger strasse, 14, vienna, austria",TRUE,16.3472477,48.2537513,450.8242349048801,8.816421262155542,1,2
01209,Ober St.Veit,2522,1130,trazerberggasse,73,1172/80,953,Kaufvertrag,WI/GBI,NA,NA,NA,NA,FALSCH,FALSCH,FALSCH,FALSCH,NA,"Ein-, Zweifamilienhaus",NA,NA,17.02.1993,1/1,1,1,0,5626/93,1090093,0,FALSCH,100,FALSCH,NA,NA,FALSCH,NA,NA,"trazerberggasse, 73, vienna, austria",TRUE,16.2764689,48.1852402,1143.854144805876,10.159687387494722,1,1
01205,Hietzing,58,1130,maxingstrasse,16,506,1493,Kaufvertrag,WI/GBI,NA,NA,NA,NA,FALSCH,FALSCH,FALSCH,FALSCH,NA,"Ein-, Zweifamilienhaus",NA,NA,24.01.1994,1/1,1,1,0,1763/94,1090093,0,FALSCH,20,FALSCH,NA,NA,FALSCH,NA,NA,"maxingstrasse, 16, vienna, austria",TRUE,16.2997739,48.1830134,730.1359678499665,9.512021341270124,1,1
01806,Mauer,477,1230,gebirgsgasse,72,774,2762,Kaufvertrag,WI/GBI,NA,NA,NA,NA,FALSCH,FALSCH,FALSCH,FALSCH,NA,"Ein-, Zweifamilienhaus",NA,NA,27.10.1994,1/1,1,1,1960,3336/94,1090093,0,FALSCH,100,FALSCH,NA,NA,FALSCH,NA,NA,"gebirgsgasse, 72, vienna, austria",TRUE,16.2538295,48.1528714,394.67523533671255,8.624522187146614,1,1
01508,Oberdöbling,1355,1190,lannerstrasse,12,542/4,891,Kaufvertrag,WII/GBII,NA,NA,NA,NA,FALSCH,FALSCH,FALSCH,FALSCH,NA,"Ein-, Zweifamilienhaus",3,NA,13.02.1998,NA,1,1,1905,4429/98,1090093,0,FALSCH,100,FALSCH,NA,NA,FALSCH,NA,NA,"lannerstrasse, 12, vienna, austria",FALSE,16.3462777,48.2359716,1223.4489337822672,10.256738169882743,1,2
01510,Pötzleinsdorf,1219,1180,blaselgasse,22,574/11,1280,Kaufvertrag,WI/GBI,NA,NA,NA,NA,FALSCH,FALSCH,FALSCH,FALSCH,NA,"Ein-, Zweifamilienhaus",2,NA,07.08.1998,NA,1,1,0,4479/98,1090093,0,FALSCH,100,FALSCH,NA,NA,FALSCH,NA,NA,"blaselgasse, 22, vienna, austria",FALSE,16.3108234,48.236129,851.63515625,9.734091696517302,1,2
01513,Untersievering,1387,1190,brechergasse,18,366/16,1075,Kaufvertrag,WI/GBI,NA,NA,NA,NA,FALSCH,FALSCH,FALSCH,FALSCH,NA,"Ein-, Zweifamilienhaus",1,NA,24.10.2000,NA,1,1,0,6031/00,1090093,0,FALSCH,100,FALSCH,NA,NA,FALSCH,NA,NA,"brechergasse, 18, vienna, austria",FALSE,16.3200349,48.2502271,1014.04,9.985898846927842,1,2
01209,Ober St.Veit,678,1130,cranachstrasse,7,861/3,1219,Kaufvertrag,W,II,7.5,o,NA,FALSCH,FALSCH,FALSCH,FALSCH,NA,"Ein-, Zweifamilienhaus",NA,NA,17.03.2003,NA,1,1,1910,1319/03,1090092,NA,FALSCH,100,FALSCH,NA,NA,FALSCH,NA,NA,"cranachstrasse, 7, vienna, austria",FALSE,16.2626603,48.1818576,894.2510254306809,9.804536057323332,1,1
01806,Mauer,5673,1230,anton-krieger-gasse,103,1443/6,1167,Kaufvertrag,W,I,6.5,o,NA,FALSCH,FALSCH,FALSCH,FALSCH,NA,"Ein-, Zweifamilienhaus",2,J,03.11.2009,NA,1,1,1970,245/2010,1090000,NA,FALSCH,100,FALSCH,NA,NA,FALSCH,NA,NA,"anton-krieger-gasse, 103, vienna, austria",TRUE,16.2662301,48.1431747,934.018851756641,9.867307858619027,1,1
01205,Hietzing,310,1130,auhofstrasse,18,178/2,1162,Kaufvertrag,WI/GBI,NA,NA,NA,NA,WAHR,FALSCH,FALSCH,FALSCH,NA,"Ein-, Zweifamilienhaus",NA,NA,18.12.1992,1/1,1,1,0,2856/93,1082825,0,FALSCH,100,FALSCH,NA,NA,FALSCH,NA,NA,"auhofstrasse, 18, vienna, austria",TRUE,16.2943359,48.1875928,931.8631669535284,9.863974317561574,0,NA
01401,Dornbach,2765,1170,roentgengasse,7,486/1,1130,Kaufvertrag,WI/GBI,NA,NA,NA,NA,FALSCH,FALSCH,FALSCH,FALSCH,NA,"Ein-, Zweifamilienhaus",2,NA,30.12.1999,NA,1,1,0,221/00,1082825,0,FALSCH,100,FALSCH,NA,NA,FALSCH,NA,NA,"roentgengasse, 7, vienna, austria",FALSE,16.2881096,48.2254483,958.2522123893805,9.904261613663552,1,2
01206,Hütteldorf,45,1140,bahnhofstrasse,13,97,451,Kaufvertrag,W,II,10.5,g,NA,FALSCH,FALSCH,FALSCH,FALSCH,NA,"Ein-, Zweifamilienhaus",1,J,24.08.2016,NA,1,1,NA,5527/16,1080000,NA,FALSCH,100,FALSCH,NA,NA,FALSCH,NA,NA,"bahnhofstrasse, 13, vienna, austria",FALSE,16.2628666,48.1986157,2394.6784922394677,11.225616258457537,1,1
01209,Ober St.Veit,1293,1130,beckgasse,41,1273/11,598,Kaufvertrag,WII/GBII,NA,NA,NA,NA,FALSCH,FALSCH,FALSCH,FALSCH,NA,"Ein-, Zweifamilienhaus",NA,NA,17.03.1992,1/1,1,1,0,4588/92,1075558,0,FALSCH,100,FALSCH,NA,NA,FALSCH,NA,NA,"beckgasse, 41, vienna, austria",TRUE,16.2824731,48.18445879999999,1798.591973244147,10.812652220032266,1,1
01201,Auhof,2115,1130,steinklammergasse,3,1920,919,Kaufvertrag,WI/GBI,NA,NA,NA,NA,FALSCH,FALSCH,FALSCH,FALSCH,NA,"Ein-, Zweifamilienhaus",NA,NA,18.12.1995,1/1,1,1,1995,7516/96,1075558,0,FALSCH,100,FALSCH,NA,NA,FALSCH,NA,NA,"steinklammergasse, 3, vienna, austria",FALSE,16.2667278,48.16214799999999,1170.3569096844396,10.192732842941338,1,1
01511,Salmannsdorf,66,1180,keylwerthgasse,18,53/10,1071,Kaufvertrag,WI/GBI,NA,NA,NA,NA,FALSCH,FALSCH,FALSCH,FALSCH,NA,"Ein-, Zweifamilienhaus",2,NA,30.09.1997,NA,1,1,1960,1959/98,1075558,0,FALSCH,100,FALSCH,NA,NA,FALSCH,NA,NA,"keylwerthgasse, 18, vienna, austria",FALSE,16.2891441,48.25284629999999,1004.2558356676004,9.971911129480116,1,2
01215,Unter St.Veit,320,1130,elsslergasse,15,308/9,1095,Kaufvertrag,W,I,NA,o,NA,FALSCH,FALSCH,FALSCH,FALSCH,NA,"Ein-, Zweifamilienhaus",NA,NA,28.04.2006,NA,1,1,NA,1151/06,1070000,NA,FALSCH,100,FALSCH,NA,NA,FALSCH,NA,NA,"elsslergasse, 15, vienna, austria",FALSE,16.2890987,48.184835,977.1689497716895,9.93246421146206,0,NA
01207,Lainz,85,1130,fasangartengasse,45,140/13,829,Kaufvertrag,W,I,7.5,g,NA,FALSCH,FALSCH,FALSCH,FALSCH,NA,"Ein-, Zweifamilienhaus",2,J,31.01.2007,NA,1,1,1900,1589/2007,1070000,NA,FALSCH,100,FALSCH,NA,NA,FALSCH,NA,NA,"fasangartengasse, 45, vienna, austria",FALSE,16.28907,48.1736312,1290.7117008443909,10.333951074454847,1,1
01660,Kagran,2185,1220,schachnerstrasse,67,100/82,572,Kaufvertrag,W,I,7.5,o gk,NA,FALSCH,FALSCH,FALSCH,FALSCH,NA,"Ein-, Zweifamilienhaus",NA,J,01.09.2014,NA,1,1,NA,4787/14,1070000,NA,FALSCH,100,FALSCH,NA,NA,FALSCH,NA,NA,"schachnerstrasse, 67, vienna, austria",FALSE,16.4470636,48.2390336,1870.6293706293707,10.869308029172206,1,4
01201,Auhof,353,1130,kramer-gloeckner-strasse,5,1328,897,Kaufvertrag,W,I,6.5,o,NA,FALSCH,FALSCH,FALSCH,FALSCH,NA,"Ein-, Zweifamilienhaus",2,J,24.05.2016,NA,1,1,1985,1920/16,1070000,NA,FALSCH,100,FALSCH,NA,NA,FALSCH,NA,NA,"kramer-gloeckner-strasse, 5, vienna, austria",TRUE,16.2659694,48.16873409999999,1192.8651059085842,10.220215191031334,1,1
01206,Hütteldorf,3252,1140,henckellgasse,19,734/42,1449,Kaufvertrag,WI/GBI,NA,NA,NA,NA,FALSCH,FALSCH,FALSCH,FALSCH,NA,"Ein-, Zweifamilienhaus",NA,J,23.05.1990,1/1,1,1,0,2839/90,1067491,0,FALSCH,100,FALSCH,NA,NA,FALSCH,NA,NA,"henckellgasse, 19, vienna, austria",FALSE,16.2594386,48.2063403,736.7087646652864,9.524950596324858,1,1
01806,Mauer,4732,1230,binagasse,18,1551/3,1230,Kaufvertrag,W,I,6.5,o gk,NA,FALSCH,FALSCH,FALSCH,FALSCH,NA,"Ein-, Zweifamilienhaus",NA,J,08.03.2013,NA,1,1,NA,1302/13,1066000,NA,FALSCH,100,FALSCH,NA,NA,FALSCH,NA,NA,"binagasse, 18, vienna, austria",FALSE,16.2778635,48.1449104,866.6666666666666,9.75933340719466,1,1
01215,Unter St.Veit,536,1130,elsslergasse,11,289/24,582,Kaufvertrag,WII/GBII,NA,NA,NA,NA,WAHR,FALSCH,FALSCH,FALSCH,NA,"Ein-, Zweifamilienhaus",0,NA,07.04.1999,NA,1,1,1920,1170/99,1061023,0,FALSCH,100,FALSCH,NA,NA,FALSCH,NA,NA,"elsslergasse, 11, vienna, austria",FALSE,16.2887,48.1840796,1823.0635738831616,10.832149156585903,1,1
01105,Oberlaa Stadt,1521,1100,steineichengasse,37,2555/1,990,Kaufvertrag,WI/GBI,NA,NA,NA,NA,FALSCH,FALSCH,FALSCH,FALSCH,NA,"Ein-, Zweifamilienhaus",0,NA,10.01.2001,NA,1,1,2001,335/01,1056767,0,FALSCH,100,FALSCH,NA,NA,FALSCH,NA,NA,"steineichengasse, 37, vienna, austria",FALSE,16.4078455,48.15707039999999,1067.441414141414,10.05994117526002,0,NA
01510,Pötzleinsdorf,339,1180,poetzleinsdorfer str.,39,554/11,1208,Kaufvertrag,WII/GBII,NA,NA,NA,NA,WAHR,FALSCH,FALSCH,FALSCH,NA,"Ein-, Zweifamilienhaus",NA,NA,05.11.1993,1/1,1,1,1900,5339/94,1053756,0,FALSCH,100,FALSCH,NA,NA,FALSCH,NA,NA,"poetzleinsdorfer str., 39, vienna, austria",TRUE,16.3134589,48.2398987,872.3145695364238,9.7687046757767515,1,2
01209,Ober St.Veit,3025,1130,slatingasse,4,760/18,1730,Kaufvertrag,W,I,6.5,o,NA,FALSCH,FALSCH,FALSCH,FALSCH,NA,"Ein-, Zweifamilienhaus",2,NA,25.04.2006,NA,1,1,1970,1723/06,1050000,NA,FALSCH,100,FALSCH,NA,NA,FALSCH,NA,NA,"slatingasse, 4, vienna, austria",TRUE,16.2587666,48.1817726,606.9364161849711,9.245401574691485,1,1
01209,Ober St.Veit,2427,1130,bossigasse,58,1181/40,1015,Kaufvertrag,W,I,6.5,o,NA,FALSCH,FALSCH,FALSCH,FALSCH,NA,"Ein-, Zweifamilienhaus",2,J,13.04.2015,NA,1,1,NA,1076/15,1050000,NA,FALSCH,100,FALSCH,NA,NA,FALSCH,NA,NA,"bossigasse, 58, vienna, austria",TRUE,16.2780778,48.1845971,1034.4827586206898,10.014693885143034,0,NA
01207,Lainz,321,1130,veitingergasse,21,336/15,733,Kaufvertrag,W,I,7.5,o,NA,FALSCH,FALSCH,FALSCH,FALSCH,NA,"Ein-, Zweifamilienhaus",NA,J,30.12.2015,NA,1,1,NA,411/16,1050000,NA,FALSCH,100,FALSCH,NA,NA,FALSCH,NA,NA,"veitingergasse, 21, vienna, austria",FALSE,16.2796349,48.1788763,1432.4693042291951,10.484288509081761,1,1
01512,Unterdöbling,180,1190,iglaseegasse,27,152,482,Kaufvertrag,W,I,7.5,g,Schutzzone,FALSCH,FALSCH,FALSCH,FALSCH,NA,"Ein-, Zweifamilienhaus",2,J,16.07.2015,NA,1,1,1980,5425/2015,1050000,NA,FALSCH,50,FALSCH,NA,NA,FALSCH,"W I 4,5 g",50,"iglaseegasse, 27, vienna, austria",FALSE,16.3472052,48.2471298,2178.4232365145226,11.089068560985611,1,2
01510,Pötzleinsdorf,1435,1180,starkfriedgasse,42,360/12,1378,Kaufvertrag,WI/GBI,NA,NA,NA,NA,FALSCH,FALSCH,FALSCH,FALSCH,NA,"Ein-, Zweifamilienhaus",NA,NA,14.09.1993,1/1,1,1,1960,3499/94,1046489,0,FALSCH,100,FALSCH,NA,NA,FALSCH,NA,NA,"starkfriedgasse, 42, vienna, austria",TRUE,16.3102323,48.2444002,759.4259796806966,9.568765543637436,1,2
01207,Lainz,941,1130,muehlbachergasse,12,1/9,1100,Kaufvertrag,WI/GBI,NA,NA,NA,NA,FALSCH,FALSCH,FALSCH,FALSCH,NA,"Ein-, Zweifamilienhaus",2,NA,28.02.2002,NA,1,1,1930,1153/02,1046489,0,FALSCH,100,FALSCH,NA,NA,FALSCH,NA,NA,"muehlbachergasse, 12, vienna, austria",FALSE,16.2855715,48.1828814,951.3536363636364,9.893837907929706,1,1
01508,Oberdöbling,1298,1190,vegagasse,14,868/122,900,Kaufvertrag,WII/GBII,NA,NA,NA,NA,WAHR,FALSCH,FALSCH,WAHR,seit 14.2.1991,"Ein-, Zweifamilienhaus",NA,NA,11.05.1994,1/1,1,1,1906,3990/94,1035588,0,FALSCH,100,FALSCH,NA,NA,FALSCH,NA,NA,"vegagasse, 14, vienna, austria",TRUE,16.3469338,48.2352453,1150.6533333333334,10.168237531153054,1,2
01503,Heiligenstadt,922,1190,schreiberweg,34,660/3,1212,Kaufvertrag,WI/GBI,NA,NA,NA,NA,FALSCH,FALSCH,FALSCH,FALSCH,NA,"Ein-, Zweifamilienhaus",2,NA,28.04.1999,NA,1,1,0,2658/99,1035588,0,FALSCH,100,FALSCH,NA,NA,FALSCH,NA,NA,"schreiberweg, 34, vienna, austria",FALSE,16.3464237,48.2578141,854.4455445544554,9.73884473889714,1,2
01502,Grinzing,452,1190,grinzinger strasse,30,540,2065,Kaufvertrag,WI/GBI,NA,NA,NA,NA,FALSCH,FALSCH,FALSCH,FALSCH,NA,"Ein-, Zweifamilienhaus",NA,NA,08.04.1988,1/1,1,1,1880,2443/88,1031954,0,FALSCH,30,FALSCH,NA,NA,FALSCH,NA,NA,"grinzinger strasse, 30, vienna, austria",FALSE,16.348694,48.25357760000001,499.73559322033896,8.965021166171008,1,2
